{"type":"FeatureCollection","features":[{"type":"Feature","properties":{"OBJECTID":1,"X":"401754.35","Y":"133079.67","ARC_STREET":"1667 GOOD HOPE ROAD SE","NAME":"SOME's Senior Center (Kuehner Place)","TELEPHONE":"202 797-8800","ADDRESS":"1667 GOOD HOPE ROAD SE","TYPE":"Group Meal Programs","WEB_URL":"http://some.org/services_stability_elderly.html","WARD":"8","ADDRID":"58175","GIS_ID":"ags_143"},"geometry":{"type":"Point","coordinates":[-76.97978755059036,38.865543268145224]}},{"type":"Feature","properties":{"OBJECTID":2,"X":"394347.88","Y":"142038.72","ARC_STREET":"4340 CONNECTICUT AVE NW","NAME":"UDC - Institute of Gerontology - BODYWISE Program","TELEPHONE":"202-274-6697","ADDRESS":"4340 CONNECTICUT AVE NW","TYPE":"Wellness Programs","WEB_URL":"http://www.udc.edu/academics/cas/gerontology/community_sevice_pgms.htm","WARD":"3","ADDRID":"223153","GIS_ID":"ags_5"},"geometry":{"type":"Point","coordinates":[-77.06520328656937,38.946233089843325]}},{"type":"Feature","properties":{"OBJECTID":3,"X":"393720.79","Y":"140179.36","ARC_STREET":"3001 WISCONSIN AVE NW","NAME":"St. Albans Episcopal Church","TELEPHONE":"202-363-8286x115","ADDRESS":"3001 WISCONSIN AVE NW","TYPE":"Group Meal Programs","WEB_URL":"http://dcoa.dc.gov/page/food-meals-and-nutrition","WARD":"3","ADDRID":"221620","GIS_ID":"ags_53"},"geometry":{"type":"Point","coordinates":[-77.07242017244957,38.92947916882228]}},{"type":"Feature","properties":{"OBJECTID":4,"X":"403447.95","Y":"140054.18","ARC_STREET":"3001 BLADENSBURG RD NE","NAME":"Fort Lincoln II","TELEPHONE":"202-529-7730","ADDRESS":"3001 BLADENSBURG RD NE","TYPE":"Group Meal Programs","WEB_URL":"http://dcoa.dc.gov/page/food-meals-and-nutrition","WARD":"5","ADDRID":"287351","GIS_ID":"ags_70"},"geometry":{"type":"Point","coordinates":[-76.96023782480158,38.92836718381391]}},{"type":"Feature","properties":{"OBJECTID":5,"X":"398241.79","Y":"143138.75","ARC_STREET":"504 KENNEDY ST NW","NAME":"Barney Neighborhood House Senior Program","TELEPHONE":"202-939-9020","ADDRESS":"504 KENNEDY ST NW","TYPE":"Group Meal Programs","WEB_URL":"http://barneynh.org/senior_services_programs.html","WARD":"4","ADDRID":"285060","GIS_ID":"ags_66"},"geometry":{"type":"Point","coordinates":[-77.0202872390052,38.95615888636422]}},{"type":"Feature","properties":{"OBJECTID":6,"X":"398490.77","Y":"139039.13","ARC_STREET":"2125 4TH ST NW","NAME":"LeDroit Park","TELEPHONE":"202-939-9003","ADDRESS":"2125 4TH ST NW","TYPE":"Group Meal Programs","WEB_URL":"http://dcoa.dc.gov/page/food-meals-and-nutrition","WARD":"1","ADDRID":"284228","GIS_ID":"ags_45"},"geometry":{"type":"Point","coordinates":[-77.01740566825946,38.91922875417691]}},{"type":"Feature","properties":{"OBJECTID":7,"X":"404363.02","Y":"136219.83","ARC_STREET":"3917 MINNESOTA AVENUE NE","NAME":"East River Family Strengthening Collaborative","TELEPHONE":"202-534-4880","ADDRESS":"3917 MINNESOTA AVENUE NE","TYPE":"Case Management","WEB_URL":"http://www.erfsc.org/","WARD":"7","ADDRID":"29135","GIS_ID":"ags_113"},"geometry":{"type":"Point","coordinates":[-76.94970888447423,38.89382198579934]}},{"type":"Feature","properties":{"OBJECTID":8,"X":"403772.98","Y":"135320.05","ARC_STREET":"3440 MINNESOTA AVE SE","NAME":"Phillip T. Johnson Senior Center","TELEPHONE":"202-584-4431","ADDRESS":"3440 MINNESOTA AVE SE","TYPE":"Group Meal Programs","WEB_URL":"http://dcoa.dc.gov/page/food-meals-and-nutrition","WARD":"7","ADDRID":"34531","GIS_ID":"ags_83"},"geometry":{"type":"Point","coordinates":[-76.9565153313047,38.88571915966543]}},{"type":"Feature","properties":{"OBJECTID":9,"X":"404164.19","Y":"135993.94","ARC_STREET":"3760 MINNESOTA AVE NE","NAME":"Allen House Upper Room Baptist Church","TELEPHONE":"202-396-7351","ADDRESS":"3760 MINNESOTA AVE NE","TYPE":"Group Meal Programs","WEB_URL":"http://dcoa.dc.gov/page/food-meals-and-nutrition","WARD":"7","ADDRID":"30794","GIS_ID":"ags_81"},"geometry":{"type":"Point","coordinates":[-76.95200220571807,38.891788049183866]}},{"type":"Feature","properties":{"OBJECTID":10,"X":"400923.31","Y":"139312","ARC_STREET":"1251 SARATOGA AVE NE","NAME":"Israel Baptist Church","TELEPHONE":"202-832-8483","ADDRESS":"1251 SARATOGA AVE NE","TYPE":"Group Meal Programs","WEB_URL":"http://dcoa.dc.gov/page/food-meals-and-nutrition","WARD":"5","ADDRID":"69666","GIS_ID":"ags_72"},"geometry":{"type":"Point","coordinates":[-76.98935494410497,38.92168766822779]}},{"type":"Feature","properties":{"OBJECTID":11,"X":"401201.89","Y":"138128.76","ARC_STREET":"1808 CAPITOL AVE NE","NAME":"Bethesda Baptist Church","TELEPHONE":"202-269-9876","ADDRESS":"1808 CAPITOL AVE NE","TYPE":"Group Meal Programs","WEB_URL":"http://dcoa.dc.gov/page/food-meals-and-nutrition","WARD":"5","ADDRID":"155925","GIS_ID":"ags_92"},"geometry":{"type":"Point","coordinates":[-76.98614452502267,38.91102831106313]}},{"type":"Feature","properties":{"OBJECTID":12,"X":"396742.3","Y":"142356.35","ARC_STREET":"4817 BLAGDEN AVE NW","NAME":"Genevieve Johnson Day Care","TELEPHONE":"202-723-8537","ADDRESS":"4817 BLAGDEN AVE NW","TYPE":"Group Meal Programs","WEB_URL":"http://dcoa.dc.gov/page/food-meals-and-nutrition","WARD":"4","ADDRID":"258753","GIS_ID":"ags_96"},"geometry":{"type":"Point","coordinates":[-77.03758355417035,38.949106533183944]}},{"type":"Feature","properties":{"OBJECTID":13,"X":"396642.46","Y":"139623.65","ARC_STREET":"2551 17TH ST NW","NAME":"Sarah's Circle","TELEPHONE":"202-332-1400","ADDRESS":"2551 17TH ST NW","TYPE":"Group Meal Programs","WEB_URL":"http://dcoa.dc.gov/page/food-meals-and-nutrition","WARD":"1","ADDRID":"235865","GIS_ID":"ags_58"},"geometry":{"type":"Point","coordinates":[-77.03872194932414,38.924489180766706]}},{"type":"Feature","properties":{"OBJECTID":14,"X":"397500.46","Y":"137555.4","ARC_STREET":"1221 M ST NW","NAME":"Claridge Towers","TELEPHONE":"202-682-7503","ADDRESS":"1221 M ST NW","TYPE":"Group Meal Programs","WEB_URL":" ","WARD":"2","ADDRID":"278959","GIS_ID":"ags_129"},"geometry":{"type":"Point","coordinates":[-77.02881983109103,38.905860551678416]}},{"type":"Feature","properties":{"OBJECTID":15,"X":"397305.72","Y":"144706.25","ARC_STREET":"1327 VAN BUREN ST NW","NAME":"Ft. Stevens Recreation Center","TELEPHONE":"202-576-6916","ADDRESS":"1327 VAN BUREN ST NW","TYPE":"Group Meal Programs","WEB_URL":"http://dcoa.dc.gov/page/food-meals-and-nutrition","WARD":"4","ADDRID":"290152","GIS_ID":"ags_57"},"geometry":{"type":"Point","coordinates":[-77.03109309836638,38.970276948867564]}},{"type":"Feature","properties":{"OBJECTID":16,"X":"394416.72","Y":"141805.02","ARC_STREET":"4200 CONNECTICUT AVE NW","NAME":"UDC - Institute of Gerontology - Respite Aid Program","TELEPHONE":"202-274-6623","ADDRESS":"4200 CONNECTICUT AVE NW","TYPE":"Health Care and In-Home Support","WEB_URL":"http://www.udc.edu/academics/cas/gerontology/community_sevice_pgms.htm","WARD":"3","ADDRID":"297694","GIS_ID":"ags_21"},"geometry":{"type":"Point","coordinates":[-77.06440727479443,38.944128294502704]}},{"type":"Feature","properties":{"OBJECTID":17,"X":"400902.69","Y":"129245.01","ARC_STREET":"4301 9TH STREET SE","NAME":"Access Housing Inc., Senior Program","TELEPHONE":"202-562-6860","ADDRESS":"4301 9TH STREET SE","TYPE":"Group Meal Programs","WEB_URL":"http://www.accesshousingincdc.org/","WARD":"8","ADDRID":"298086","GIS_ID":"ags_117"},"geometry":{"type":"Point","coordinates":[-76.9896059430379,38.83100025021797]}},{"type":"Feature","properties":{"OBJECTID":18,"X":"401192.28","Y":"135622.76","ARC_STREET":"1340 MASSACHUSETTS AVE SE","NAME":"St. Monicas Episcopal Church","TELEPHONE":"202-547-8401","ADDRESS":"1340 MASSACHUSETTS AVE SE","TYPE":"Group Meal Programs","WEB_URL":"http://dcoa.dc.gov/page/food-meals-and-nutrition","WARD":"6","ADDRID":"66582","GIS_ID":"ags_80"},"geometry":{"type":"Point","coordinates":[-76.98625967069833,38.88845337260718]}},{"type":"Feature","properties":{"OBJECTID":19,"X":"395012.47","Y":"140991.13","ARC_STREET":"2850 QUEBEC ST NW","NAME":"Adas Israel DC Senior Fellowship","TELEPHONE":"202-363-7530","ADDRESS":"2850 QUEBEC ST NW","TYPE":"Group Meal Programs","WEB_URL":"http://dcoa.dc.gov/page/food-meals-and-nutrition","WARD":"3","ADDRID":"219289","GIS_ID":"ags_52"},"geometry":{"type":"Point","coordinates":[-77.0575291801514,38.93680012108363]}},{"type":"Feature","properties":{"OBJECTID":20,"X":"396871.83","Y":"138012.73","ARC_STREET":"1509 16TH ST NW","NAME":"Family Matters of Greater Washington - Heavy Housecleaning","TELEPHONE":"202-289-1510x1180","ADDRESS":"1509 16TH ST NW","TYPE":"Health Care and In-Home Support","WEB_URL":" ","WARD":"2","ADDRID":"225609","GIS_ID":"ags_16"},"geometry":{"type":"Point","coordinates":[-77.0360694787041,38.90997832617662]}},{"type":"Feature","properties":{"OBJECTID":21,"X":"397950.57","Y":"140641.97","ARC_STREET":"3531 GEORGIA AVE NW","NAME":"Bernice Elizabeth Fonteneau Wellness Center","TELEPHONE":"202-727-0338","ADDRESS":"3531 GEORGIA AVE NW","TYPE":"Group Meal Programs","WEB_URL":"http://dcoa.dc.gov/page/food-meals-and-nutrition","WARD":"1","ADDRID":"228763","GIS_ID":"ags_142"},"geometry":{"type":"Point","coordinates":[-77.02363967063415,38.93366654995132]}},{"type":"Feature","properties":{"OBJECTID":22,"X":"400282.91","Y":"139511.68","ARC_STREET":"635 EDGEWOOD ST NE","NAME":"Edgewood Terrace #1","TELEPHONE":"202-832-8266","ADDRESS":"635 EDGEWOOD ST NE","TYPE":"Group Meal Programs","WEB_URL":"http://dcoa.dc.gov/page/food-meals-and-nutrition","WARD":"5","ADDRID":"289573","GIS_ID":"ags_68"},"geometry":{"type":"Point","coordinates":[-76.99673976332588,38.923486889428396]}},{"type":"Feature","properties":{"OBJECTID":23,"X":"404800.4","Y":"133486.63","ARC_STREET":"1400 41ST STREET SE","NAME":"Ft Davis Community Center","TELEPHONE":"202-645-9212","ADDRESS":"1400 41ST STREET SE","TYPE":"Group Meal Programs","WEB_URL":" ","WARD":"7","ADDRID":"295122","GIS_ID":"ags_126"},"geometry":{"type":"Point","coordinates":[-76.94468621537216,38.86919798058273]}},{"type":"Feature","properties":{"OBJECTID":24,"X":"395827.93","Y":"137077.53","ARC_STREET":"2136 PENNSYLVANIA AVE NW","NAME":"George Washington University Health Insurance Counseling","TELEPHONE":"202-739-0668","ADDRESS":"2136 PENNSYLVANIA AVE NW","TYPE":"Health Care and In-Home Support","WEB_URL":" ","WARD":"2","ADDRID":"291174","GIS_ID":"ags_63"},"geometry":{"type":"Point","coordinates":[-77.04809976774945,38.901549381816686]}},{"type":"Feature","properties":{"OBJECTID":25,"X":"402018.77","Y":"139583.79","ARC_STREET":"1901 EVARTS ST NE","NAME":"Model Cities Senior Wellness Center","TELEPHONE":"202-635-1900","ADDRESS":"1901 EVARTS ST NE","TYPE":"Group Meal Programs","WEB_URL":"http://dcoa.dc.gov/page/food-meals-and-nutrition","WARD":"5","ADDRID":"301587","GIS_ID":"ags_73"},"geometry":{"type":"Point","coordinates":[-76.97672162801649,38.92413420686128]}},{"type":"Feature","properties":{"OBJECTID":26,"X":"400871.16","Y":"129193.1","ARC_STREET":"896 SOUTHERN AVE SE","NAME":"DuPont Park Seventh Day Adventist Apartments","TELEPHONE":"202-562-1365","ADDRESS":"896 SOUTHERN AVE SE","TYPE":"Group Meal Programs","WEB_URL":" ","WARD":"8","ADDRID":"81597","GIS_ID":"ags_123"},"geometry":{"type":"Point","coordinates":[-76.98996914722193,38.83053265255038]}},{"type":"Feature","properties":{"OBJECTID":27,"X":"395563.18","Y":"136780.31","ARC_STREET":"725 24TH ST NW","NAME":"St. Mary's Court","TELEPHONE":"202-659-5645","ADDRESS":"725 24TH ST NW","TYPE":"Group Meal Programs","WEB_URL":"http://dcoa.dc.gov/page/food-meals-and-nutrition","WARD":"2","ADDRID":"242350","GIS_ID":"ags_50"},"geometry":{"type":"Point","coordinates":[-77.05115000902215,38.89887062093253]}},{"type":"Feature","properties":{"OBJECTID":28,"X":"397129.35","Y":"137738.4","ARC_STREET":"1425 N STREET NW","NAME":"James Apartment Building","TELEPHONE":"202-673-4460","ADDRESS":"1425 N STREET NW","TYPE":"Group Meal Programs","WEB_URL":"http://dcoa.dc.gov/page/food-meals-and-nutrition","WARD":"2","ADDRID":"240239","GIS_ID":"ags_116"},"geometry":{"type":"Point","coordinates":[-77.03309917585672,38.90750794568497]}},{"type":"Feature","properties":{"OBJECTID":29,"X":"397902.33","Y":"137950.53","ARC_STREET":"1426 9TH ST NW","NAME":"Emmaus Services for the Aging (Flemming Nutrition Center)","TELEPHONE":"202-745-1200","ADDRESS":"1426 9TH ST NW","TYPE":"Group Meal Programs","WEB_URL":"http://www.emmausdc.org","WARD":"2","ADDRID":"243060","GIS_ID":"ags_74"},"geometry":{"type":"Point","coordinates":[-77.02418782194569,38.909421071160196]}},{"type":"Feature","properties":{"OBJECTID":30,"X":"398127.65","Y":"139417.7","ARC_STREET":"601 HOWARD PLACE NW","NAME":"Howard University, School of Social Work-Staff Development and Training for DC Office of Aging","TELEPHONE":"202-806-7300","ADDRESS":"601 HOWARD PLACE NW","TYPE":"Employment and Job Training","WEB_URL":" ","WARD":"1","ADDRID":"291495","GIS_ID":"ags_115"},"geometry":{"type":"Point","coordinates":[-77.02159394779619,38.92263833723895]}},{"type":"Feature","properties":{"OBJECTID":31,"X":"399689.32","Y":"143314.83","ARC_STREET":"5656 3RD ST NE","NAME":"Barney Senior Center","TELEPHONE":"202-939-9020","ADDRESS":"5656 3RD ST NE","TYPE":"Group Meal Programs","WEB_URL":"http://barneynh.org/senior_services_programs.html","WARD":"4","ADDRID":"7175","GIS_ID":"ags_48"},"geometry":{"type":"Point","coordinates":[-77.00358676269602,38.95774676686201]}},{"type":"Feature","properties":{"OBJECTID":32,"X":"398388.73","Y":"136812.17","ARC_STREET":"417 G PL NW","NAME":"Asian/Pacific Islander Senior Services Center","TELEPHONE":"202-842-4376","ADDRESS":"417 G PL NW","TYPE":"Group Meal Programs","WEB_URL":"http://dcoa.dc.gov/page/food-meals-and-nutrition","WARD":"2","ADDRID":"303718","GIS_ID":"ags_95"},"geometry":{"type":"Point","coordinates":[-77.01857709606719,38.8991673487573]}},{"type":"Feature","properties":{"OBJECTID":33,"X":"402917.95","Y":"140712.3","ARC_STREET":"2900 NEWTON STREET NE","NAME":"Seabury Ward 5 Aging Services","TELEPHONE":"202-529-8701","ADDRESS":"2900 NEWTON STREET NE","TYPE":"Group Meal Programs","WEB_URL":"http://www.seaburyresources.org/srj/index.php/assistance/ward5","WARD":"5","ADDRID":"287312","GIS_ID":"ags_120"},"geometry":{"type":"Point","coordinates":[-76.96634740071653,38.934297650948466]}},{"type":"Feature","properties":{"OBJECTID":34,"X":"402481.29","Y":"139818.28","ARC_STREET":"2412 FRANKLIN ST NE","NAME":"Green Valley Apartments","TELEPHONE":"202-635-0286","ADDRESS":"2412 FRANKLIN ST NE","TYPE":"Group Meal Programs","WEB_URL":"http://dcoa.dc.gov/page/food-meals-and-nutrition","WARD":"5","ADDRID":"287033","GIS_ID":"ags_100"},"geometry":{"type":"Point","coordinates":[-76.9713869553637,38.92624538334603]}},{"type":"Feature","properties":{"OBJECTID":35,"X":"400069.73","Y":"134551.26","ARC_STREET":"900 5TH ST SE","NAME":"Arthur Capper Senior Center","TELEPHONE":"202-546-1024","ADDRESS":"900 5TH ST SE","TYPE":"Group Meal Programs","WEB_URL":"http://dcoa.dc.gov/page/food-meals-and-nutrition","WARD":"6","ADDRID":"302625","GIS_ID":"ags_76"},"geometry":{"type":"Point","coordinates":[-76.99919865424262,38.87880169184884]}},{"type":"Feature","properties":{"OBJECTID":36,"X":"397760.5","Y":"139291","ARC_STREET":"2301 11TH ST NW","NAME":"Garfield Terrace","TELEPHONE":"202-939-9038","ADDRESS":"2301 11TH ST NW","TYPE":"Group Meal Programs","WEB_URL":"http://dcoa.dc.gov/page/food-meals-and-nutrition","WARD":"1","ADDRID":"284334","GIS_ID":"ags_43"},"geometry":{"type":"Point","coordinates":[-77.02582745473347,38.921496123504]}},{"type":"Feature","properties":{"OBJECTID":37,"X":"400435.52","Y":"132317.08","ARC_STREET":"2616 MARTIN LUTHER KING JR AVE SE","NAME":"Claiborne House, Matthews Memorial Church","TELEPHONE":"202-610-0961","ADDRESS":"2616 MARTIN LUTHER KING JR AVE SE","TYPE":"Group Meal Programs","WEB_URL":"http://dcoa.dc.gov/page/food-meals-and-nutrition","WARD":"8","ADDRID":"278192","GIS_ID":"ags_89"},"geometry":{"type":"Point","coordinates":[-76.99498442257277,38.858675178956446]}},{"type":"Feature","properties":{"OBJECTID":38,"X":"392921.6","Y":"142256.5","ARC_STREET":"4125 ALBEMARLE STREET NW","NAME":"Isabella Breckinridge Center","TELEPHONE":"202-895-0238","ADDRESS":"4125 ALBEMARLE STREET NW","TYPE":"Adult Day Care","WEB_URL":" ","WARD":"3","ADDRID":"264423","GIS_ID":"ags_109"},"geometry":{"type":"Point","coordinates":[-77.08165862511485,38.948184577392965]}},{"type":"Feature","properties":{"OBJECTID":39,"X":"396956.78","Y":"139707.59","ARC_STREET":"1480 GIRARD ST NW","NAME":"DC Department of Parks and Recreation Senior Services Division","TELEPHONE":"202-664-7153","ADDRESS":"1480 GIRARD ST NW","TYPE":"Recreation/Socialization","WEB_URL":" ","WARD":"1","ADDRID":"284045","GIS_ID":"ags_64"},"geometry":{"type":"Point","coordinates":[-77.03509753508466,38.92524648392218]}},{"type":"Feature","properties":{"OBJECTID":40,"X":"402672.65","Y":"131606.43","ARC_STREET":"2700 JASPER ST SE","NAME":"Knox Hill Apartments","TELEPHONE":"202-610-0782","ADDRESS":"2700 JASPER ST SE","TYPE":"Group Meal Programs","WEB_URL":"http://dcoa.dc.gov/page/food-meals-and-nutrition","WARD":"8","ADDRID":"278227","GIS_ID":"ags_86"},"geometry":{"type":"Point","coordinates":[-76.96921204537793,38.85226938708342]}},{"type":"Feature","properties":{"OBJECTID":41,"X":"401895.08","Y":"139507.43","ARC_STREET":"2601 18TH ST NE","NAME":"Call 'N' Ride/Door to Door Taxicab Transportation Program","TELEPHONE":"202-715-7652","ADDRESS":"2601 18TH ST NE","TYPE":"Senior Transportation Program","WEB_URL":"http://dcoa.dc.gov/service/transportation-services-sept2","WARD":"5","ADDRID":"287131","GIS_ID":"ags_1"},"geometry":{"type":"Point","coordinates":[-76.97814824379128,38.923446606877505]}},{"type":"Feature","properties":{"OBJECTID":42,"X":"403114.43","Y":"132521.44","ARC_STREET":"3001 ALABAMA AVE SE","NAME":"Washington Senior Wellness Center, Weekend Nutrition Program","TELEPHONE":"202-581-9355","ADDRESS":"3001 ALABAMA AVE SE","TYPE":"Group Meal Programs","WEB_URL":" ","WARD":"7","ADDRID":"289473","GIS_ID":"ags_125"},"geometry":{"type":"Point","coordinates":[-76.96411838201234,38.86051073512742]}},{"type":"Feature","properties":{"OBJECTID":43,"X":"401359.1","Y":"136967.29","ARC_STREET":"1400 FLORIDA AVE NE","NAME":"Delta Towers","TELEPHONE":"202-398-1303","ADDRESS":"1400 FLORIDA AVE NE","TYPE":"Group Meal Programs","WEB_URL":"http://dcoa.dc.gov/page/food-meals-and-nutrition","WARD":"5","ADDRID":"65280","GIS_ID":"ags_67"},"geometry":{"type":"Point","coordinates":[-76.9843341835445,38.90056515294226]}},{"type":"Feature","properties":{"OBJECTID":44,"X":"397160.74","Y":"139909.37","ARC_STREET":"2900 14TH ST NW","NAME":"Columbia Heights","TELEPHONE":"202-939-9034","ADDRESS":"2900 14TH ST NW","TYPE":"Group Meal Programs","WEB_URL":"http://dcoa.dc.gov/page/food-meals-and-nutrition","WARD":"1","ADDRID":"234356","GIS_ID":"ags_42"},"geometry":{"type":"Point","coordinates":[-77.03274624686136,38.92706486480927]}},{"type":"Feature","properties":{"OBJECTID":45,"X":"398027.24","Y":"141226.21","ARC_STREET":"715 RANDOLPH ST NW","NAME":"First Baptist Senior Center","TELEPHONE":"202-723-4313","ADDRESS":"715 RANDOLPH ST NW","TYPE":"Group Meal Programs","WEB_URL":"http://dcoa.dc.gov/page/food-meals-and-nutrition","WARD":"4","ADDRID":"249660","GIS_ID":"ags_56"},"geometry":{"type":"Point","coordinates":[-77.0227570607834,38.93892973445447]}},{"type":"Feature","properties":{"OBJECTID":46,"X":"397036.53","Y":"138845.41","ARC_STREET":"2001 15TH ST NW","NAME":"Campbell Heights","TELEPHONE":"202-939-9035","ADDRESS":"2001 15TH ST NW","TYPE":"Group Meal Programs","WEB_URL":"http://dcoa.dc.gov/page/food-meals-and-nutrition","WARD":"1","ADDRID":"239975","GIS_ID":"ags_41"},"geometry":{"type":"Point","coordinates":[-77.03417411370968,38.91747995925795]}},{"type":"Feature","properties":{"OBJECTID":47,"X":"396145.21","Y":"139466.17","ARC_STREET":"1842 CALVERT ST NW","NAME":"VIDA Senior Center","TELEPHONE":"202-483-1508","ADDRESS":"1842 CALVERT ST NW","TYPE":"Nursing Facility","WEB_URL":" ","WARD":"1","ADDRID":"235322","GIS_ID":"ags_121"},"geometry":{"type":"Point","coordinates":[-77.04445542787393,38.92306850970356]}},{"type":"Feature","properties":{"OBJECTID":48,"X":"396251.08","Y":"140058.04","ARC_STREET":"1845 HARVARD ST NW","NAME":"Harvard Towers","TELEPHONE":"202-939-9005","ADDRESS":"1845 HARVARD ST NW","TYPE":"Group Meal Programs","WEB_URL":"http://dcoa.dc.gov/page/food-meals-and-nutrition","WARD":"1","ADDRID":"236261","GIS_ID":"ags_44"},"geometry":{"type":"Point","coordinates":[-77.04323777610114,38.92840072027633]}},{"type":"Feature","properties":{"OBJECTID":49,"X":"397258.82","Y":"137675.78","ARC_STREET":"1226 VERMONT AVE NW","NAME":"Emmaus Services for the Aging Homeless Center (Oasis)","TELEPHONE":"202-265-2017","ADDRESS":"1226 VERMONT AVE NW","TYPE":"Group Meal Programs","WEB_URL":"http://dcoa.dc.gov/page/food-meals-and-nutrition","WARD":"2","ADDRID":"240613","GIS_ID":"ags_51"},"geometry":{"type":"Point","coordinates":[-77.03160621343031,38.90694425630104]}},{"type":"Feature","properties":{"OBJECTID":50,"X":"401889.43","Y":"139419.55","ARC_STREET":"2501 18TH ST NE","NAME":"Christian Communities Group Homes","TELEPHONE":"202-635-9384","ADDRESS":"2501 18TH ST NE","TYPE":"Emergency and Group Housing","WEB_URL":" ","WARD":"5","ADDRID":"287082","GIS_ID":"ags_62"},"geometry":{"type":"Point","coordinates":[-76.97821364134407,38.92265496769382]}},{"type":"Feature","properties":{"OBJECTID":51,"X":"397668.31","Y":"142526.41","ARC_STREET":"930 FARRAGUT ST NW","NAME":"Colony House","TELEPHONE":"202-882-3881","ADDRESS":"930 FARRAGUT ST NW","TYPE":"Group Meal Programs","WEB_URL":"http://dcoa.dc.gov/page/food-meals-and-nutrition","WARD":"4","ADDRID":"285470","GIS_ID":"ags_55"},"geometry":{"type":"Point","coordinates":[-77.02690155489056,38.9506414270241]}},{"type":"Feature","properties":{"OBJECTID":52,"X":"398635.86","Y":"136399.72","ARC_STREET":"441 4TH ST NW","NAME":"DC Office of Aging's Notary Public Service","TELEPHONE":"202-724-5622","ADDRESS":"441 4TH ST NW","TYPE":"Legal Services","WEB_URL":"http://dcoa.dc.gov/","WARD":"2","ADDRID":"285552","GIS_ID":"ags_27"},"geometry":{"type":"Point","coordinates":[-77.01572735299035,38.895452267172146]}},{"type":"Feature","properties":{"OBJECTID":53,"X":"399675.91","Y":"130234.21","ARC_STREET":"3500 MARTIN LUTHER KING JR AVE SE","NAME":"Congress Heights Senior Wellness Center","TELEPHONE":"202-563-7225","ADDRESS":"3500 MARTIN LUTHER KING JR AVE SE","TYPE":"Group Meal Programs","WEB_URL":"http://dcoa.dc.gov/page/food-meals-and-nutrition","WARD":"8","ADDRID":"303598","GIS_ID":"ags_93"},"geometry":{"type":"Point","coordinates":[-77.00373530242119,38.83991182039352]}},{"type":"Feature","properties":{"OBJECTID":54,"X":"403731.44","Y":"139275.97","ARC_STREET":"3298 FORT LINCOLN DR NE","NAME":"Fort Lincoln III","TELEPHONE":"202-269-4530","ADDRESS":"3298 FORT LINCOLN DR NE","TYPE":"Group Meal Programs","WEB_URL":"http://dcoa.dc.gov/page/food-meals-and-nutrition","WARD":"5","ADDRID":"151262","GIS_ID":"ags_71"},"geometry":{"type":"Point","coordinates":[-76.95697263272872,38.92135566240378]}},{"type":"Feature","properties":{"OBJECTID":55,"X":"400536.71","Y":"136821.6","ARC_STREET":"900 G STREET NE, 4th Floor","NAME":"South Washington West of the River Family Strengthening Collaborative","TELEPHONE":"202-608-1340","ADDRESS":"900 G STREET NE, 4th Floor","TYPE":"Group Meal Programs","WEB_URL":" ","WARD":"6","ADDRID":"289042","GIS_ID":"ags_119"},"geometry":{"type":"Point","coordinates":[-76.99381504483179,38.899253611383266]}},{"type":"Feature","properties":{"OBJECTID":56,"X":"402862.5","Y":"133838.3","ARC_STREET":"2812 PENNSYLVANIA AVE SE","NAME":"Dwelling Place Senior Center","TELEPHONE":"202-582-7138","ADDRESS":"2812 PENNSYLVANIA AVE SE","TYPE":"Group Meal Programs","WEB_URL":"http://dcoa.dc.gov/page/food-meals-and-nutrition","WARD":"7","ADDRID":"287282","GIS_ID":"ags_82"},"geometry":{"type":"Point","coordinates":[-76.96701559133862,38.87237440883708]}},{"type":"Feature","properties":{"OBJECTID":57,"X":"397629.22","Y":"137148.83","ARC_STREET":"926 11TH ST NW","NAME":"Asbury Methodist Church Downtown Cluster's Day Care","TELEPHONE":"202-347-7527","ADDRESS":"926 11TH ST NW","TYPE":"Group Meal Programs","WEB_URL":"http://dcoa.dc.gov/page/food-meals-and-nutrition","WARD":"2","ADDRID":"301937","GIS_ID":"ags_47"},"geometry":{"type":"Point","coordinates":[-77.02733393516255,38.90219838223257]}},{"type":"Feature","properties":{"OBJECTID":58,"X":"399177.1","Y":"137473.68","ARC_STREET":"1140 N CAPITOL ST NW","NAME":"Sibley Plaza","TELEPHONE":"202-289-0784","ADDRESS":"1140 N CAPITOL ST NW","TYPE":"Group Meal Programs","WEB_URL":"http://dcoa.dc.gov/page/food-meals-and-nutrition","WARD":"6","ADDRID":"285576","GIS_ID":"ags_94"},"geometry":{"type":"Point","coordinates":[-77.00948951185339,38.905127558714256]}},{"type":"Feature","properties":{"OBJECTID":59,"X":"398849.56","Y":"134233.65","ARC_STREET":"1200 DELAWARE AVE SW","NAME":"Greenleaf Senior Building","TELEPHONE":"202-554-1121","ADDRESS":"1200 DELAWARE AVE SW","TYPE":"Group Meal Programs","WEB_URL":"http://dcoa.dc.gov/page/food-meals-and-nutrition","WARD":"6","ADDRID":"72281","GIS_ID":"ags_78"},"geometry":{"type":"Point","coordinates":[-77.0132603014621,38.875939784840384]}},{"type":"Feature","properties":{"OBJECTID":60,"X":"400071.4","Y":"137220.4","ARC_STREET":"500 K STREET NE","NAME":"Hayes Senior Wellness Center","TELEPHONE":"202-741-5886","ADDRESS":"500 K STREET NE","TYPE":"Wellness Programs","WEB_URL":" ","WARD":"6","ADDRID":"300865","GIS_ID":"ags_136"},"geometry":{"type":"Point","coordinates":[-76.99917913196741,38.902846305537764]}},{"type":"Feature","properties":{"OBJECTID":61,"X":"399535.33","Y":"129773","ARC_STREET":"114 WAYNE PLACE SE","NAME":"Access Housing Inc., Deaf and Hard of Hearing Program","TELEPHONE":"202-562-1041","ADDRESS":"114 WAYNE PLACE SE","TYPE":"Group Meal Programs","WEB_URL":"http://www.accesshousingincdc.org/","WARD":"8","ADDRID":"149796","GIS_ID":"ags_124"},"geometry":{"type":"Point","coordinates":[-77.00535426041776,38.83575696765921]}},{"type":"Feature","properties":{"OBJECTID":62,"X":"399286.43","Y":"144429.41","ARC_STREET":"20 TUCKERMAN ST NE","NAME":"Lamond Recreation Center","TELEPHONE":"202-576-9541","ADDRESS":"20 TUCKERMAN ST NE","TYPE":"Group Meal Programs","WEB_URL":" ","WARD":"4","ADDRID":"296166","GIS_ID":"ags_128"},"geometry":{"type":"Point","coordinates":[-77.00823628069493,38.967786951038676]}},{"type":"Feature","properties":{"OBJECTID":63,"X":"398515.9","Y":"143164.25","ARC_STREET":"324 KENNEDY ST NW","NAME":"Hattie Holmes Senior Wellness Center","TELEPHONE":"202-291-6170","ADDRESS":"324 KENNEDY ST NW","TYPE":"Group Meal Programs","WEB_URL":"http://dcoa.dc.gov/page/food-meals-and-nutrition","WARD":"4","ADDRID":"307575","GIS_ID":"ags_54"},"geometry":{"type":"Point","coordinates":[-77.01712481673894,38.956389103153846]}},{"type":"Feature","properties":{"OBJECTID":64,"X":"397457.4","Y":"137371.65","ARC_STREET":"1234 MASSACHUSETTS AVE NW","NAME":"AL-CARE","TELEPHONE":"202-638-2382","ADDRESS":"1234 MASSACHUSETTS AVE NW","TYPE":"Health Care and In-Home Support","WEB_URL":" ","WARD":"2","ADDRID":"240920","GIS_ID":"ags_17"},"geometry":{"type":"Point","coordinates":[-77.02931559557713,38.90420514353488]}},{"type":"Feature","properties":{"OBJECTID":65,"X":"403387.22","Y":"140020.95","ARC_STREET":"2855 BLADENSBURG RD NE","NAME":"Fort Lincoln I","TELEPHONE":"202-635-2392","ADDRESS":"2855 BLADENSBURG RD NE","TYPE":"Group Meal Programs","WEB_URL":"http://dcoa.dc.gov/page/food-meals-and-nutrition","WARD":"5","ADDRID":"289764","GIS_ID":"ags_69"},"geometry":{"type":"Point","coordinates":[-76.96093837452293,38.928068073754105]}},{"type":"Feature","properties":{"OBJECTID":66,"X":"398246.73","Y":"136501.31","ARC_STREET":"601 E ST NW","NAME":"Legal Counsel for the Elderly - AARP, DC Long Term Care Ombudsman Office","TELEPHONE":"202-434-2140","ADDRESS":"601 E ST NW","TYPE":"Advocacy and Ombudsman","WEB_URL":"http://www.aarp.org/states/dc/LCE.html","WARD":"2","ADDRID":"226366","GIS_ID":"ags_12"},"geometry":{"type":"Point","coordinates":[-77.02021328706154,38.8963667370166]}},{"type":"Feature","properties":{"OBJECTID":67,"X":"398969.98","Y":"137112.78","ARC_STREET":"901 FIRST STREET NW","NAME":"Unique Residential Care Center","TELEPHONE":"202 535-1100","ADDRESS":"901 FIRST STREET NW","TYPE":"Nursing Facility","WEB_URL":"http://www.urccenter.com/","WARD":"6","ADDRID":"237152","GIS_ID":"ags_134"},"geometry":{"type":"Point","coordinates":[-77.01187686183155,38.9018762251604]}},{"type":"Feature","properties":{"OBJECTID":68,"X":"398128.57","Y":"138246.84","ARC_STREET":"1616 MARION ST NW","NAME":"Asbury Dwelling","TELEPHONE":"202-745-7434","ADDRESS":"1616 MARION ST NW","TYPE":"Group Meal Programs","WEB_URL":"http://dcoa.dc.gov/page/food-meals-and-nutrition","WARD":"6","ADDRID":"279266","GIS_ID":"ags_46"},"geometry":{"type":"Point","coordinates":[-77.02158014633436,38.91209084406449]}},{"type":"Feature","properties":{"OBJECTID":69,"X":"397583.92","Y":"143434.89","ARC_STREET":"5801 GEORGIA AVE NW","NAME":"Emery Recreation Center","TELEPHONE":"202-576-3211","ADDRESS":"5801 GEORGIA AVE NW","TYPE":"Group Meal Programs","WEB_URL":"http://dcoa.dc.gov/page/food-meals-and-nutrition","WARD":"4","ADDRID":"285269","GIS_ID":"ags_99"},"geometry":{"type":"Point","coordinates":[-77.02787832278457,38.958825029734236]}},{"type":"Feature","properties":{"OBJECTID":70,"X":"397950.57","Y":"140641.97","ARC_STREET":"3531 GEORGIA AVE NW","NAME":"Bernice Elizabeth Fonteneau Wellness Center","TELEPHONE":"202-727-0338","ADDRESS":"3531 GEORGIA AVE NW","TYPE":"Wellness Programs","WEB_URL":"http://dcoa.dc.gov/service/find-services","WARD":"1","ADDRID":"228763","GIS_ID":"ags_141"},"geometry":{"type":"Point","coordinates":[-77.0236394910908,38.93366639572044]}},{"type":"Feature","properties":{"OBJECTID":71,"X":"403114.43","Y":"132521.44","ARC_STREET":"3001 ALABAMA AVE SE","NAME":"The Washington Seniors Wellness Center","TELEPHONE":"202-581-9355","ADDRESS":"3001 ALABAMA AVE SE","TYPE":"Wellness Programs","WEB_URL":"http://dcoa.dc.gov/node/513562","WARD":"7","ADDRID":"289473","GIS_ID":"ags_6"},"geometry":{"type":"Point","coordinates":[-76.96411838201234,38.86051073512742]}},{"type":"Feature","properties":{"OBJECTID":72,"X":"402018.77","Y":"139583.79","ARC_STREET":"1901 EVARTS ST NE","NAME":"Model Cities Senior Wellness Center","TELEPHONE":"202-635-1900","ADDRESS":"1901 EVARTS ST NE","TYPE":"Wellness Programs","WEB_URL":"http://dcoa.dc.gov/node/513562","WARD":"5","ADDRID":"301587","GIS_ID":"ags_73"},"geometry":{"type":"Point","coordinates":[-76.97672162801649,38.92413420686128]}},{"type":"Feature","properties":{"OBJECTID":73,"X":"398515.9","Y":"143164.25","ARC_STREET":"324 KENNEDY ST NW","NAME":"Hattie Holmes Senior Wellness Center","TELEPHONE":"202-291-6170","ADDRESS":"324 KENNEDY ST NW","TYPE":"Wellness Programs","WEB_URL":" ","WARD":"4","ADDRID":"307575","GIS_ID":"ags_54"},"geometry":{"type":"Point","coordinates":[-77.01712481673894,38.956389103153846]}},{"type":"Feature","properties":{"OBJECTID":74,"X":"403496.3105","Y":"133383.67","ARC_STREET":"3440 MINNESOTA AVE SE","NAME":"Phillip T. Johnson Senior Center","TELEPHONE":"202-584-4431","ADDRESS":"3440 MINNESOTA AVE SE","TYPE":"Group Meal Programs","WEB_URL":"http://dcoa.dc.gov/page/food-meals-and-nutrition","WARD":"7","ADDRID":"34531","GIS_ID":"ags_83"},"geometry":{"type":"Point","coordinates":[-76.95971404708679,38.868276625897856]}},{"type":"Feature","properties":{"OBJECTID":75,"X":"400902.69","Y":"129245.01","ARC_STREET":"4301 9TH STREET SE","NAME":"Access Housing Inc., Senior Program","TELEPHONE":"202-562-6860","ADDRESS":"4301 9TH STREET SE","TYPE":"Case Management","WEB_URL":"http://www.accesshousingincdc.org/","WARD":"8","ADDRID":"298086","GIS_ID":"ags_117"},"geometry":{"type":"Point","coordinates":[-76.9896059430379,38.83100025021797]}},{"type":"Feature","properties":{"OBJECTID":76,"X":"397902.3305","Y":"137950.5299","ARC_STREET":"1426 9TH ST NW","NAME":"Emmaus Services for the Aging","TELEPHONE":"202-745-1200","ADDRESS":"1426 9TH ST NW","TYPE":"Case Management","WEB_URL":"http://www.emmausdc.org","WARD":"2","ADDRID":"243060","GIS_ID":"ags_110"},"geometry":{"type":"Point","coordinates":[-77.0241878219453,38.90942107003415]}},{"type":"Feature","properties":{"OBJECTID":77,"X":"396871.8305","Y":"138012.73","ARC_STREET":"1509 16TH ST NW","NAME":"Family Matters of Greater Washington","TELEPHONE":"202-289-1510x1180","ADDRESS":"1509 16TH ST NW","TYPE":"Case Management","WEB_URL":"http://familymattersdc.org/","WARD":"2","ADDRID":"225609","GIS_ID":"ags_30"},"geometry":{"type":"Point","coordinates":[-77.0360694787041,38.90997832617662]}},{"type":"Feature","properties":{"OBJECTID":78,"X":"402917.9505","Y":"140712.3013","ARC_STREET":"2900 NEWTON STREET NE","NAME":"Seabury Ward 5 Aging Services","TELEPHONE":"202-529-8701","ADDRESS":"2900 NEWTON STREET NE","TYPE":"Case Management","WEB_URL":"http://www.seaburyresources.org/srj/index.php/assistance/ward5","WARD":"5","ADDRID":"287312","GIS_ID":"ags_120"},"geometry":{"type":"Point","coordinates":[-76.96634740071094,38.93429766277186]}},{"type":"Feature","properties":{"OBJECTID":79,"X":"392921.6","Y":"142256.5","ARC_STREET":"4125 ALBEMARLE ST NW","NAME":"IONA Senior Services","TELEPHONE":"202-895-0234","ADDRESS":"4125 ALBEMARLE ST NW","TYPE":"Case Management","WEB_URL":"http://www.iona.org/","WARD":"3","ADDRID":"264423","GIS_ID":"ags_32"},"geometry":{"type":"Point","coordinates":[-77.08165862511485,38.948184577392965]}},{"type":"Feature","properties":{"OBJECTID":80,"X":"399689.32","Y":"143314.83","ARC_STREET":"5656 3RD ST NE","NAME":"Barney Neighborhood House Senior Program","TELEPHONE":"202-939-9020","ADDRESS":"5656 3RD ST NE","TYPE":"Case Management","WEB_URL":"http://barneynh.org/senior_services_programs.html","WARD":"4","ADDRID":"7175","GIS_ID":"ags_66"},"geometry":{"type":"Point","coordinates":[-77.00358676269602,38.95774676686201]}},{"type":"Feature","properties":{"OBJECTID":81,"X":"400536.71","Y":"136821.6","ARC_STREET":"900 G STREET NE, 4th Floor","NAME":"South Washington West of the River Family Strengthening Collaborative","TELEPHONE":"202-608-1340","ADDRESS":"900 G STREET NE, 4th Floor","TYPE":"Case Management","WEB_URL":" ","WARD":"6","ADDRID":"289042","GIS_ID":"ags_119"},"geometry":{"type":"Point","coordinates":[-76.99381507581245,38.89925362320835]}},{"type":"Feature","properties":{"OBJECTID":82,"X":"397629.22","Y":"137148.83","ARC_STREET":"926 11TH ST NW","NAME":"Downtown Cluster's Day Care Center Ashbury Methodist Church","TELEPHONE":"202-347-7527","ADDRESS":"926 11TH ST NW","TYPE":"Adult Day Care","WEB_URL":" ","WARD":"2","ADDRID":"301937","GIS_ID":"ags_36"},"geometry":{"type":"Point","coordinates":[-77.02733393516255,38.90219838223257]}},{"type":"Feature","properties":{"OBJECTID":83,"X":"401895.08","Y":"139507.43","ARC_STREET":"2601 18TH ST NE","NAME":"Center Care Day Treatment Program Washington Center for Aging Services","TELEPHONE":"202-541-6150","ADDRESS":"2601 18TH ST NE","TYPE":"Adult Day Care","WEB_URL":" ","WARD":"5","ADDRID":"287131","GIS_ID":"ags_34"},"geometry":{"type":"Point","coordinates":[-76.97814824379128,38.923446606877505]}},{"type":"Feature","properties":{"OBJECTID":84,"X":"396742.3","Y":"142356.35","ARC_STREET":"4817 BLAGDEN AVE NW","NAME":"Genevieve N. Johnson Senior Day Care Program","TELEPHONE":"202-723-8537","ADDRESS":"4817 BLAGDEN AVE NW","TYPE":"Adult Day Care","WEB_URL":" ","WARD":"4","ADDRID":"258753","GIS_ID":"ags_9"},"geometry":{"type":"Point","coordinates":[-77.03758355417035,38.949106533183944]}},{"type":"Feature","properties":{"OBJECTID":85,"X":"402862.5005","Y":"133838.3","ARC_STREET":"2812 PENNSYLVANIA AVE SE","NAME":"Interfaith Caregivers Program (S.O.M.E.)","TELEPHONE":"202-581-8000x3","ADDRESS":"2812 PENNSYLVANIA AVE SE","TYPE":"Health Care and In-Home Support","WEB_URL":" ","WARD":"7","ADDRID":"287282","GIS_ID":"ags_20"},"geometry":{"type":"Point","coordinates":[-76.96701559133862,38.87237440883708]}},{"type":"Feature","properties":{"OBJECTID":86,"X":"397902.3305","Y":"137950.53","ARC_STREET":"1426 9TH ST NW","NAME":"EMMAUS Services for the Aging","TELEPHONE":"202-745-1200","ADDRESS":"1426 9TH ST NW","TYPE":"Health Care and In-Home Support","WEB_URL":"http://www.emmausdc.org","WARD":"2","ADDRID":"243060","GIS_ID":"ags_14"},"geometry":{"type":"Point","coordinates":[-77.02418782194569,38.909421071160196]}},{"type":"Feature","properties":{"OBJECTID":87,"X":"397457.4005","Y":"137371.65","ARC_STREET":"1234 MASSACHUSETTS AVE NW","NAME":"DC Caregivers' Institute","TELEPHONE":"202-464-1513","ADDRESS":"1234 MASSACHUSETTS AVE NW","TYPE":"Health Care and In-Home Support","WEB_URL":" ","WARD":"2","ADDRID":"240920","GIS_ID":"ags_18"},"geometry":{"type":"Point","coordinates":[-77.02931559557713,38.90420514353488]}},{"type":"Feature","properties":{"OBJECTID":88,"X":"397457.4005","Y":"137371.65","ARC_STREET":"1234 MASSACHUSETTS AVE NW","NAME":"Home Care Partners","TELEPHONE":"202-638-2382","ADDRESS":"1234 MASSACHUSETTS AVE NW","TYPE":"Health Care and In-Home Support","WEB_URL":" ","WARD":"2","ADDRID":"240920","GIS_ID":"ags_19"},"geometry":{"type":"Point","coordinates":[-77.02931559557713,38.90420514353488]}},{"type":"Feature","properties":{"OBJECTID":89,"X":"402018.7705","Y":"139583.79","ARC_STREET":"1901 EVARTS ST NE","NAME":"Family Matters of Greater Washington Weekend Alzheimer's Program (Weekend Respite)","TELEPHONE":"202-635-1900","ADDRESS":"1901 EVARTS ST NE","TYPE":"Health Care and In-Home Support","WEB_URL":" ","WARD":"5","ADDRID":"301587","GIS_ID":"ags_15"},"geometry":{"type":"Point","coordinates":[-76.97672162801649,38.92413420686128]}},{"type":"Feature","properties":{"OBJECTID":90,"X":"401895.0805","Y":"139507.43","ARC_STREET":"2601 18TH ST NE","NAME":"Washington Center for Aging Services - Respite","TELEPHONE":"202-541-6200","ADDRESS":"2601 18TH ST NE","TYPE":"Health Care and In-Home Support","WEB_URL":" ","WARD":"5","ADDRID":"287131","GIS_ID":"ags_22"},"geometry":{"type":"Point","coordinates":[-76.97814824379128,38.923446606877505]}},{"type":"Feature","properties":{"OBJECTID":91,"X":"402862.5005","Y":"133838.3","ARC_STREET":"2812 PENNSYLVANIA AVE SE","NAME":"Dwelling Place Senior Center","TELEPHONE":"202-582-7138","ADDRESS":"2812 PENNSYLVANIA AVE SE","TYPE":"Recreation/Socialization","WEB_URL":"http://www.some.org/services_stability_elderly.html","WARD":"7","ADDRID":"287282","GIS_ID":"ags_82"},"geometry":{"type":"Point","coordinates":[-76.96701559133862,38.87237440883708]}},{"type":"Feature","properties":{"OBJECTID":92,"X":"403772.9805","Y":"135320.05","ARC_STREET":"3440 MINNESOTA AVE SE","NAME":"Phillip T. Johnson Senior Center, UPO Senior Life Center","TELEPHONE":"202-584-4431","ADDRESS":"3440 MINNESOTA AVE SE","TYPE":"Recreation/Socialization","WEB_URL":"http://www.upo.org/","WARD":"7","ADDRID":"34531","GIS_ID":"ags_103"},"geometry":{"type":"Point","coordinates":[-76.9565153313047,38.88571915966543]}},{"type":"Feature","properties":{"OBJECTID":93,"X":"397258.8205","Y":"137675.78","ARC_STREET":"1226 VERMONT AVE NW","NAME":"Emmaus Services for the Aging Center for the Homeless - Oasis Program","TELEPHONE":"202-265-2017","ADDRESS":"1226 VERMONT AVE NW","TYPE":"Recreation/Socialization","WEB_URL":"http://www.emmausdc.org","WARD":"2","ADDRID":"240613","GIS_ID":"ags_105"},"geometry":{"type":"Point","coordinates":[-77.03160621343031,38.90694425630104]}},{"type":"Feature","properties":{"OBJECTID":94,"X":"398388.7305","Y":"136812.17","ARC_STREET":"417 G PL NW","NAME":"Asian Services Senior Center","TELEPHONE":"202-842-4376","ADDRESS":"417 G PL NW","TYPE":"Recreation/Socialization","WEB_URL":"http://dcoa.dc.gov/service/find-services","WARD":"2","ADDRID":"303718","GIS_ID":"ags_107"},"geometry":{"type":"Point","coordinates":[-77.01857709606719,38.8991673487573]}},{"type":"Feature","properties":{"OBJECTID":95,"X":"402917.9505","Y":"140712.3","ARC_STREET":"2900 NEWTON ST NE","NAME":"Seabury Ward 5 Aging Services - Senior Center for the Blind and Visually Impaired","TELEPHONE":"202-529-8701","ADDRESS":"2900 NEWTON ST NE","TYPE":"Recreation/Socialization","WEB_URL":"http://www.seaburyresources.org/srj/index.php/assistance/ward5","WARD":"5","ADDRID":"287312","GIS_ID":"ags_130"},"geometry":{"type":"Point","coordinates":[-76.96634740071653,38.934297650948466]}},{"type":"Feature","properties":{"OBJECTID":96,"X":"398027.2405","Y":"141226.21","ARC_STREET":"715 RANDOLPH ST NW","NAME":"First Baptist Senior Center","TELEPHONE":"202-723-4313","ADDRESS":"715 RANDOLPH ST NW","TYPE":"Recreation/Socialization","WEB_URL":" ","WARD":"4","ADDRID":"249660","GIS_ID":"ags_56"},"geometry":{"type":"Point","coordinates":[-77.0227570607834,38.93892973445447]}},{"type":"Feature","properties":{"OBJECTID":97,"X":"399680.22","Y":"143302.04","ARC_STREET":"5656 3RD ST NE","NAME":"Barney Senior Center","TELEPHONE":"202-939-9020","ADDRESS":"5656 3RD ST NE","TYPE":"Recreation/Socialization","WEB_URL":"http://barneynh.org/senior_services_programs.html","WARD":"4","ADDRID":"7175","GIS_ID":"ags_48"},"geometry":{"type":"Point","coordinates":[-77.00369175406293,38.95763154791282]}},{"type":"Feature","properties":{"OBJECTID":98,"X":"400069.7305","Y":"134551.26","ARC_STREET":"900 5TH ST SE","NAME":"Arthur Capper Senior Center","TELEPHONE":"202-675-9088","ADDRESS":"900 5TH ST SE","TYPE":"Recreation/Socialization","WEB_URL":"http://dcoa.dc.gov/page/food-meals-and-nutrition","WARD":"6","ADDRID":"302625","GIS_ID":"ags_76"},"geometry":{"type":"Point","coordinates":[-76.99919865424262,38.87880169184884]}},{"type":"Feature","properties":{"OBJECTID":99,"X":"396956.7802","Y":"139707.5901","ARC_STREET":"1480 GIRARD ST NW","NAME":"DC Department of Parks and Recreation","TELEPHONE":"202-671-0394","ADDRESS":"1480 GIRARD ST NW","TYPE":"Senior Transportation Program","WEB_URL":"http://dcoa.dc.gov/service/transportation-services-sept2","WARD":"1","ADDRID":"284045","GIS_ID":"ags_132"},"geometry":{"type":"Point","coordinates":[-77.03509753868904,38.92524648504711]}},{"type":"Feature","properties":{"OBJECTID":100,"X":"401895.0805","Y":"139507.43","ARC_STREET":"2601 18TH ST NE","NAME":"Washington Elderly Handicapped Transportation Services","TELEPHONE":"202-715-7649","ADDRESS":"2601 18TH ST NE","TYPE":"Senior Transportation Program","WEB_URL":"http://dcoa.dc.gov/service/transportation-services-sept2","WARD":"5","ADDRID":"287131","GIS_ID":"ags_2"},"geometry":{"type":"Point","coordinates":[-76.97814824379128,38.923446606877505]}},{"type":"Feature","properties":{"OBJECTID":101,"X":"396145.21","Y":"139466.17","ARC_STREET":"1842 CALVERT ST NW","NAME":"VIDA Senior Center","TELEPHONE":"202-483-1508","ADDRESS":"1842 CALVERT ST NW","TYPE":"Nursing Facility","WEB_URL":" ","WARD":"1","ADDRID":"235322","GIS_ID":"ags_121"},"geometry":{"type":"Point","coordinates":[-77.04445542787393,38.92306850970356]}},{"type":"Feature","properties":{"OBJECTID":102,"X":"398969.98","Y":"137112.78","ARC_STREET":"901 FIRST STREET NW","NAME":"Unique Residential Care Center","TELEPHONE":"202 535-1100","ADDRESS":"901 FIRST STREET NW","TYPE":"Nursing Facility","WEB_URL":"http://www.urccenter.com/","WARD":"6","ADDRID":"237152","GIS_ID":"ags_134"},"geometry":{"type":"Point","coordinates":[-77.01187686183155,38.9018762251604]}},{"type":"Feature","properties":{"OBJECTID":103,"X":"398246.7305","Y":"136501.31","ARC_STREET":"601 E ST NW","NAME":"Legal Counsel for the Elderly - AARP","TELEPHONE":"202-434-2120","ADDRESS":"601 E ST NW","TYPE":"Legal Services","WEB_URL":"http://www.aarp.org/states/dc/LCE.html","WARD":"2","ADDRID":"226366","GIS_ID":"ags_40"},"geometry":{"type":"Point","coordinates":[-77.02021328706154,38.8963667370166]}},{"type":"Feature","properties":{"OBJECTID":104,"X":"398388.7305","Y":"136812.17","ARC_STREET":"417 G PL NW","NAME":"Asian and Pacific Islander Senior Center","TELEPHONE":"202-842-4376","ADDRESS":"417 G PL NW","TYPE":"Multicultural Centers","WEB_URL":"http://dcoa.dc.gov/service/find-services","WARD":"2","ADDRID":"303718","GIS_ID":"ags_140"},"geometry":{"type":"Point","coordinates":[-77.01857709606719,38.8991673487573]}},{"type":"Feature","properties":{"OBJECTID":105,"X":"396145.21","Y":"139466.17","ARC_STREET":"1842 CALVERT ST NW","NAME":"VIDA Senior Center","TELEPHONE":"202-483-5800","ADDRESS":"1842 CALVERT ST NW","TYPE":"Multicultural Centers","WEB_URL":"http://www.vidaseniorcenters.org/","WARD":"1","ADDRID":"235322","GIS_ID":"ags_121"},"geometry":{"type":"Point","coordinates":[-77.04445542787393,38.92306850970356]}},{"type":"Feature","properties":{"OBJECTID":106,"X":"401889.4305","Y":"139419.55","ARC_STREET":"2501 18TH ST NE","NAME":"House of Togetherness","TELEPHONE":"202-347-7527","ADDRESS":"2501 18TH ST NE","TYPE":"Group Homes","WEB_URL":" ","WARD":"5","ADDRID":"287082","GIS_ID":"ags_137"},"geometry":{"type":"Point","coordinates":[-76.97821364134407,38.92265496769382]}},{"type":"Feature","properties":{"OBJECTID":107,"X":"401889.4305","Y":"139419.55","ARC_STREET":"2501 18TH ST NE","NAME":"Andrus House","TELEPHONE":"202-347-7527","ADDRESS":"2501 18TH ST NE","TYPE":"Group Homes","WEB_URL":"http://dcoa.dc.gov/service/find-services","WARD":"5","ADDRID":"287082","GIS_ID":"ags_138"},"geometry":{"type":"Point","coordinates":[-76.97821364134407,38.92265496769382]}},{"type":"Feature","properties":{"OBJECTID":108,"X":"401889.4305","Y":"139419.55","ARC_STREET":"2501 18TH ST NE","NAME":"Pleasant Hill","TELEPHONE":"202-347-7527","ADDRESS":"2501 18TH ST NE","TYPE":"Group Homes","WEB_URL":" ","WARD":"5","ADDRID":"287082","GIS_ID":"ags_139"},"geometry":{"type":"Point","coordinates":[-76.97821364134407,38.92265496769382]}},{"type":"Feature","properties":{"OBJECTID":109,"X":"400071.4","Y":"137220.4","ARC_STREET":"500 K ST NE","NAME":"DC Office of Aging","TELEPHONE":"202-724-3662","ADDRESS":"500 K ST NE","TYPE":"Employment and Job Training","WEB_URL":"http://dcoa.dc.gov/page/food-meals-and-nutrition","WARD":"6","ADDRID":"300865","GIS_ID":"ags_28"},"geometry":{"type":"Point","coordinates":[-76.99917913412905,38.90284630497476]}},{"type":"Feature","properties":{"OBJECTID":110,"X":"402862.5005","Y":"133838.3","ARC_STREET":"2812 PENNSYLVANIA AVE SE","NAME":"Dwelling Place, (S.O.M.E.) Shelter for Abused Elderly","TELEPHONE":"202-583-7602","ADDRESS":"2812 PENNSYLVANIA AVE SE","TYPE":"Emergency and Group Housing","WEB_URL":" ","WARD":"7","ADDRID":"287282","GIS_ID":"ags_61"},"geometry":{"type":"Point","coordinates":[-76.96701559133862,38.87237440883708]}},{"type":"Feature","properties":{"OBJECTID":111,"X":"397902.3305","Y":"137950.53","ARC_STREET":"1426 9TH ST NW","NAME":"EMMAUS Services for the Aging, Long Term Ombudsman Program","TELEPHONE":"202-745-1200","ADDRESS":"1426 9TH ST NW","TYPE":"Advocacy and Ombudsman","WEB_URL":"http://www.emmausdc.org","WARD":"2","ADDRID":"243060","GIS_ID":"ags_13"},"geometry":{"type":"Point","coordinates":[-77.02418782194569,38.909421071160196]}},{"type":"Feature","properties":{"OBJECTID":112,"X":"392921.6","Y":"142256.5","ARC_STREET":"4125 ALBEMARLE STREET NW","NAME":"Isabella Breckinridge Center","TELEPHONE":"202-895-0238","ADDRESS":"4125 ALBEMARLE STREET NW","TYPE":"Adult Day Care","WEB_URL":" ","WARD":"3","ADDRID":"264423","GIS_ID":"ags_109"},"geometry":{"type":"Point","coordinates":[-77.08165862511485,38.948184577392965]}},{"type":"Feature","properties":{"OBJECTID":113,"X":"397629.22","Y":"137148.83","ARC_STREET":"926 11TH ST NW","NAME":"Downtown Cluster's Day Care Center Ashbury Methodist Church","TELEPHONE":"202-347-7527","ADDRESS":"926 11TH ST NW","TYPE":"Adult Day Care","WEB_URL":" ","WARD":"2","ADDRID":"301937","GIS_ID":"ags_36"},"geometry":{"type":"Point","coordinates":[-77.02733393516255,38.90219838223257]}},{"type":"Feature","properties":{"OBJECTID":114,"X":"401895.08","Y":"139507.43","ARC_STREET":"2601 18TH ST NE","NAME":"Center Care Day Treatment Program Washington Center for Aging Services","TELEPHONE":"202-541-6150","ADDRESS":"2601 18TH ST NE","TYPE":"Adult Day Care","WEB_URL":" ","WARD":"5","ADDRID":"287131","GIS_ID":"ags_34"},"geometry":{"type":"Point","coordinates":[-76.97814824379128,38.923446606877505]}},{"type":"Feature","properties":{"OBJECTID":115,"X":"394423.7405","Y":"141839.77","ARC_STREET":"4200 CONNECTICUT AVE NW","NAME":"UDC - Institute of Gerontology, Academy of Lifetime Learning","TELEPHONE":"202-274-6651","ADDRESS":"4200 CONNECTICUT AVE NW","TYPE":"Adult Education","WEB_URL":"http://www.udc.edu/academics/cas/gerontology/community_sevice_pgms.htm","WARD":"3","ADDRID":"297694","GIS_ID":"ags_26"},"geometry":{"type":"Point","coordinates":[-77.06432657349328,38.944441376962025]}}]}