{"type":"FeatureCollection","features":[{"type":"Feature","properties":{"OBJECTID":1,"NAME":"Wells Fargo","ADDRESS":"1901 7TH STREET NW","ID":1,"ZIPCODE":20001,"WARD":1},"geometry":{"type":"Point","coordinates":[-77.02173277124894,38.91574306617856]}},{"type":"Feature","properties":{"OBJECTID":2,"NAME":"Bank of Georgetown","ADDRESS":"1301 U STREET NW","ID":2,"ZIPCODE":20009,"WARD":1},"geometry":{"type":"Point","coordinates":[-77.03066269532367,38.91721761993416]}},{"type":"Feature","properties":{"OBJECTID":3,"NAME":"Bank of America","ADDRESS":"1845 7TH STREET NW","ID":3,"ZIPCODE":20001,"WARD":1},"geometry":{"type":"Point","coordinates":[-77.02171599813812,38.91518860626162]}},{"type":"Feature","properties":{"OBJECTID":4,"NAME":"Bank of America","ADDRESS":"2397 6TH STREET NW","ID":4,"ZIPCODE":20059,"WARD":1},"geometry":{"type":"Point","coordinates":[-77.01915582046426,38.92410117337073]}},{"type":"Feature","properties":{"OBJECTID":5,"NAME":"Bank of America","ADDRESS":"511 GRESHAM PLACE NW","ID":5,"ZIPCODE":20059,"WARD":1},"geometry":{"type":"Point","coordinates":[-77.02078876881008,38.927279749583086]}},{"type":"Feature","properties":{"OBJECTID":6,"NAME":"Bank of America","ADDRESS":"3031 14TH STREET NW","ID":6,"ZIPCODE":20009,"WARD":1},"geometry":{"type":"Point","coordinates":[-77.03223334501297,38.928475709533636]}},{"type":"Feature","properties":{"OBJECTID":7,"NAME":"Bank of America","ADDRESS":"1345 PARK ROAD NW","ID":7,"ZIPCODE":20010,"WARD":1},"geometry":{"type":"Point","coordinates":[-77.0319237017804,38.930821739088245]}},{"type":"Feature","properties":{"OBJECTID":8,"NAME":"Bank of America","ADDRESS":"3131 MOUNT PLEASANT STREET NW","ID":8,"ZIPCODE":20010,"WARD":1},"geometry":{"type":"Point","coordinates":[-77.03739672985046,38.92964200900678]}},{"type":"Feature","properties":{"OBJECTID":9,"NAME":"Signal Financial","ADDRESS":"1400 IRVING STREET NW","ID":9,"ZIPCODE":20010,"WARD":1},"geometry":{"type":"Point","coordinates":[-77.03362364982408,38.9285304486705]}},{"type":"Feature","properties":{"OBJECTID":10,"NAME":"DGE FCU","ADDRESS":"3059 MOUNT PLEASANT STREET NW","ID":10,"ZIPCODE":20009,"WARD":1},"geometry":{"type":"Point","coordinates":[-77.03698561198436,38.928371967695625]}},{"type":"Feature","properties":{"OBJECTID":11,"NAME":"DGE FCU","ADDRESS":"2000 14TH STREET NW","ID":11,"ZIPCODE":20009,"WARD":1},"geometry":{"type":"Point","coordinates":[-77.03240582453643,38.917451816556756]}},{"type":"Feature","properties":{"OBJECTID":12,"NAME":"Lafyette FCU(Money Pass)","ADDRESS":"1381 KENYON STREET NW","ID":12,"ZIPCODE":20010,"WARD":1},"geometry":{"type":"Point","coordinates":[-77.03207705673745,38.929971943163956]}},{"type":"Feature","properties":{"OBJECTID":13,"NAME":"CVS(Allpoint)","ADDRESS":"2129 14TH STREET NW","ID":13,"ZIPCODE":20009,"WARD":1},"geometry":{"type":"Point","coordinates":[-77.03162778265606,38.91891219012704]}},{"type":"Feature","properties":{"OBJECTID":14,"NAME":"7-Eleven(Allpoint)","ADDRESS":"1115 U STREET NW","ID":14,"ZIPCODE":20009,"WARD":1},"geometry":{"type":"Point","coordinates":[-77.02777024657425,38.91717140976797]}},{"type":"Feature","properties":{"OBJECTID":15,"NAME":"CVS(Allpoint)","ADDRESS":"1000 U STREET NW","ID":15,"ZIPCODE":20001,"WARD":1},"geometry":{"type":"Point","coordinates":[-77.02630448462432,38.916695658546196]}},{"type":"Feature","properties":{"OBJECTID":16,"NAME":"7-Eleven(Allpoint)","ADDRESS":"1900 WYOMING AVENUE NW","ID":16,"ZIPCODE":20009,"WARD":1},"geometry":{"type":"Point","coordinates":[-77.0447800549301,38.918473778515505]}},{"type":"Feature","properties":{"OBJECTID":17,"NAME":"CVS(Allpoint)","ADDRESS":"1900 7TH STREET NW","ID":17,"ZIPCODE":20001,"WARD":1},"geometry":{"type":"Point","coordinates":[-77.02221017711474,38.91584972516939]}},{"type":"Feature","properties":{"OBJECTID":18,"NAME":"Harris Teeter(Allpoint)","ADDRESS":"1631 KALORAMA ROAD NW","ID":18,"ZIPCODE":20009,"WARD":1},"geometry":{"type":"Point","coordinates":[-77.03844187391378,38.92198694131332]}},{"type":"Feature","properties":{"OBJECTID":19,"NAME":"Amaco Quick Shoppe(Allpoint)","ADDRESS":"2600 14TH STREET NW","ID":19,"ZIPCODE":20009,"WARD":1},"geometry":{"type":"Point","coordinates":[-77.03262126744374,38.923848839831464]}},{"type":"Feature","properties":{"OBJECTID":20,"NAME":"7-Eleven (Allpoint)","ADDRESS":"1755 COLUMBIA ROAD NW","ID":20,"ZIPCODE":20009,"WARD":1},"geometry":{"type":"Point","coordinates":[-77.04144584053735,38.92387739216449]}},{"type":"Feature","properties":{"OBJECTID":21,"NAME":"7-Eleven(Allpoint)","ADDRESS":"3012 14TH STREET NW","ID":21,"ZIPCODE":20009,"WARD":1},"geometry":{"type":"Point","coordinates":[-77.03273994912395,38.927653019506046]}},{"type":"Feature","properties":{"OBJECTID":22,"NAME":"Target(Allpoint)","ADDRESS":"3100 14TH STREET NW","ID":22,"ZIPCODE":20010,"WARD":1},"geometry":{"type":"Point","coordinates":[-77.03298601467985,38.929308227973344]}},{"type":"Feature","properties":{"OBJECTID":23,"NAME":"7-Eleven(Allpoint)","ADDRESS":"3146 MOUNT PLEASANT STREET NW","ID":23,"ZIPCODE":20010,"WARD":1},"geometry":{"type":"Point","coordinates":[-77.03814039244845,38.93010218348135]}},{"type":"Feature","properties":{"OBJECTID":24,"NAME":"CVS(Allpoint)","ADDRESS":"3642 GEORGIA AVENUE NW","ID":24,"ZIPCODE":20010,"WARD":1},"geometry":{"type":"Point","coordinates":[-77.02442127821007,38.93560758847045]}},{"type":"Feature","properties":{"OBJECTID":25,"NAME":"Wells Fargo","ADDRESS":"1934 14TH STREET NW","ID":1,"ZIPCODE":20009,"WARD":2},"geometry":{"type":"Point","coordinates":[-77.03222740717335,38.91661436118612]}},{"type":"Feature","properties":{"OBJECTID":26,"NAME":"Wells Fargo","ADDRESS":"2901 M STREET NW","ID":2,"ZIPCODE":20007,"WARD":2},"geometry":{"type":"Point","coordinates":[-77.05825530570772,38.905376913863854]}},{"type":"Feature","properties":{"OBJECTID":27,"NAME":"Wells Fargo","ADDRESS":"1350 CONNECTICUT AVENUE NW","ID":3,"ZIPCODE":20036,"WARD":2},"geometry":{"type":"Point","coordinates":[-77.04308171537357,38.90831282998625]}},{"type":"Feature","properties":{"OBJECTID":28,"NAME":"Wells Fargo","ADDRESS":"1300 CONNECTICUT AVENUE NW","ID":4,"ZIPCODE":20036,"WARD":2},"geometry":{"type":"Point","coordinates":[-77.04267355565243,38.90751862361824]}},{"type":"Feature","properties":{"OBJECTID":29,"NAME":"Wells Fargo","ADDRESS":"1850 M STREET NW","ID":5,"ZIPCODE":20036,"WARD":2},"geometry":{"type":"Point","coordinates":[-77.04295035087468,38.90536949001297]}},{"type":"Feature","properties":{"OBJECTID":30,"NAME":"Wells Fargo","ADDRESS":"502 23RD STREET NW","ID":6,"ZIPCODE":20037,"WARD":2},"geometry":{"type":"Point","coordinates":[-77.0506673925454,38.896530818264154]}},{"type":"Feature","properties":{"OBJECTID":31,"NAME":"Wells Fargo","ADDRESS":"1100 CONNECTICUT AVENUE NW","ID":7,"ZIPCODE":20036,"WARD":2},"geometry":{"type":"Point","coordinates":[-77.04064022937455,38.90408014007464]}},{"type":"Feature","properties":{"OBJECTID":32,"NAME":"Wells Fargo","ADDRESS":"1800 K STREET NW","ID":8,"ZIPCODE":20006,"WARD":2},"geometry":{"type":"Point","coordinates":[-77.04208981823146,38.902237958478906]}},{"type":"Feature","properties":{"OBJECTID":33,"NAME":"Wells Fargo","ADDRESS":"1301 PENNSYLVANIA AVENUE NW","ID":9,"ZIPCODE":20004,"WARD":2},"geometry":{"type":"Point","coordinates":[-77.02995562790905,38.896384193013844]}},{"type":"Feature","properties":{"OBJECTID":34,"NAME":"Wells Fargo","ADDRESS":"801 PENNSYLVANIA AVENUE NW","ID":10,"ZIPCODE":20004,"WARD":2},"geometry":{"type":"Point","coordinates":[-77.02350839978435,38.894436077483526]}},{"type":"Feature","properties":{"OBJECTID":35,"NAME":"Wells Fargo","ADDRESS":"1510 K STREET NW","ID":11,"ZIPCODE":20005,"WARD":2},"geometry":{"type":"Point","coordinates":[-77.0351389922198,38.90218134136403]}},{"type":"Feature","properties":{"OBJECTID":36,"NAME":"Wells Fargo","ADDRESS":"1300 I STREET NW","ID":12,"ZIPCODE":20005,"WARD":2},"geometry":{"type":"Point","coordinates":[-77.03034999204917,38.9010008771982]}},{"type":"Feature","properties":{"OBJECTID":37,"NAME":"Wells Fargo","ADDRESS":"1700 PENNSYLVANIA AVENUE NW","ID":13,"ZIPCODE":20006,"WARD":2},"geometry":{"type":"Point","coordinates":[-77.03995791109759,38.898656983025624]}},{"type":"Feature","properties":{"OBJECTID":38,"NAME":"Wells Fargo","ADDRESS":"1350 NEW YORK AVENUE NW","ID":14,"ZIPCODE":20005,"WARD":2},"geometry":{"type":"Point","coordinates":[-77.03157664930113,38.89926833440205]}},{"type":"Feature","properties":{"OBJECTID":39,"NAME":"Wells Fargo","ADDRESS":"1310 G STREET NW","ID":15,"ZIPCODE":20005,"WARD":2},"geometry":{"type":"Point","coordinates":[-77.03062508918626,38.89811839997022]}},{"type":"Feature","properties":{"OBJECTID":40,"NAME":"United Bank","ADDRESS":"1001 G STREET NW","ID":16,"ZIPCODE":20001,"WARD":2},"geometry":{"type":"Point","coordinates":[-77.02648772133806,38.8987190080635]}},{"type":"Feature","properties":{"OBJECTID":41,"NAME":"United Bank","ADDRESS":"1875 I STREET NW","ID":17,"ZIPCODE":20006,"WARD":2},"geometry":{"type":"Point","coordinates":[-77.04286642049793,38.90153484398554]}},{"type":"Feature","properties":{"OBJECTID":42,"NAME":"United Bank","ADDRESS":"1667 K STREET NW","ID":18,"ZIPCODE":20006,"WARD":2},"geometry":{"type":"Point","coordinates":[-77.03818170225695,38.90300582225264]}},{"type":"Feature","properties":{"OBJECTID":43,"NAME":"PNC","ADDRESS":"1400 K STREET NW","ID":19,"ZIPCODE":20005,"WARD":2},"geometry":{"type":"Point","coordinates":[-77.0324111041189,38.90217483328029]}},{"type":"Feature","properties":{"OBJECTID":44,"NAME":"PNC","ADDRESS":"800 17TH STREET NW","ID":20,"ZIPCODE":20006,"WARD":2},"geometry":{"type":"Point","coordinates":[-77.0397447415984,38.90048827554171]}},{"type":"Feature","properties":{"OBJECTID":45,"NAME":"PNC","ADDRESS":"1913 MASSACHUSETTS AVENUE NW","ID":21,"ZIPCODE":20036,"WARD":2},"geometry":{"type":"Point","coordinates":[-77.04428485649683,38.910223861131755]}},{"type":"Feature","properties":{"OBJECTID":46,"NAME":"PNC","ADDRESS":"1201 WISCONSIN AVENUE NW","ID":22,"ZIPCODE":20007,"WARD":2},"geometry":{"type":"Point","coordinates":[-77.06253974374982,38.90538406760598]}},{"type":"Feature","properties":{"OBJECTID":47,"NAME":"PNC","ADDRESS":"3700 O STREET NW","ID":23,"ZIPCODE":20057,"WARD":2},"geometry":{"type":"Point","coordinates":[-77.07358084908903,38.90879720578691]}},{"type":"Feature","properties":{"OBJECTID":48,"NAME":"Capital One","ADDRESS":"701 PENNSYLVANIA AVENUE NW","ID":24,"ZIPCODE":20004,"WARD":2},"geometry":{"type":"Point","coordinates":[-77.02238230128947,38.894445937653]}},{"type":"Feature","properties":{"OBJECTID":49,"NAME":"Capital One","ADDRESS":"1200 F STREET NW","ID":25,"ZIPCODE":20004,"WARD":2},"geometry":{"type":"Point","coordinates":[-77.02842462182342,38.897191815272414]}},{"type":"Feature","properties":{"OBJECTID":50,"NAME":"Capital One","ADDRESS":"901 NEW YORK AVENUE NW","ID":26,"ZIPCODE":20001,"WARD":2},"geometry":{"type":"Point","coordinates":[-77.0252666944609,38.902023364849434]}},{"type":"Feature","properties":{"OBJECTID":51,"NAME":"Capital One","ADDRESS":"925 15TH STREET NW","ID":27,"ZIPCODE":20005,"WARD":2},"geometry":{"type":"Point","coordinates":[-77.03329284409146,38.90200639928407]}},{"type":"Feature","properties":{"OBJECTID":52,"NAME":"Bank of Georgetown","ADDRESS":"1115 30TH STREET NW","ID":28,"ZIPCODE":20007,"WARD":2},"geometry":{"type":"Point","coordinates":[-77.05897966345289,38.90466344911978]}},{"type":"Feature","properties":{"OBJECTID":53,"NAME":"Bank of Georgetown","ADDRESS":"822 E STREET NW","ID":29,"ZIPCODE":20004,"WARD":2},"geometry":{"type":"Point","coordinates":[-77.02339098961956,38.89600382738469]}},{"type":"Feature","properties":{"OBJECTID":54,"NAME":"Bank of Georgetown","ADDRESS":"1001 WISCONSIN AVENUE NW","ID":30,"ZIPCODE":20007,"WARD":2},"geometry":{"type":"Point","coordinates":[-77.06245364642196,38.90277898725169]}},{"type":"Feature","properties":{"OBJECTID":55,"NAME":"Bank of Georgetown","ADDRESS":"1101 CONNECTICUT AVENUE NW","ID":31,"ZIPCODE":20036,"WARD":2},"geometry":{"type":"Point","coordinates":[-77.03973726698472,38.90403991310638]}},{"type":"Feature","properties":{"OBJECTID":56,"NAME":"Bank of Georgetown","ADDRESS":"1350 I STREET NW","ID":32,"ZIPCODE":20005,"WARD":2},"geometry":{"type":"Point","coordinates":[-77.03129994386212,38.90103539879858]}},{"type":"Feature","properties":{"OBJECTID":57,"NAME":"Bank of America","ADDRESS":"1612 K STREET NW","ID":33,"ZIPCODE":20006,"WARD":2},"geometry":{"type":"Point","coordinates":[-77.03753001849887,38.90219140771806]}},{"type":"Feature","properties":{"OBJECTID":58,"NAME":"Bank of America","ADDRESS":"610 F STREET NW","ID":34,"ZIPCODE":20004,"WARD":2},"geometry":{"type":"Point","coordinates":[-77.02035426266544,38.89712981119825]}},{"type":"Feature","properties":{"OBJECTID":59,"NAME":"Bank of America","ADDRESS":"1001 E STREET NW","ID":35,"ZIPCODE":20004,"WARD":2},"geometry":{"type":"Point","coordinates":[-77.02618446388695,38.896326364699725]}},{"type":"Feature","properties":{"OBJECTID":60,"NAME":"Bank of America","ADDRESS":"700 13TH STREET NW","ID":36,"ZIPCODE":20005,"WARD":2},"geometry":{"type":"Point","coordinates":[-77.0300019228716,38.89874149000777]}},{"type":"Feature","properties":{"OBJECTID":61,"NAME":"Bank of America","ADDRESS":"1710 M STREET NW","ID":37,"ZIPCODE":20036,"WARD":2},"geometry":{"type":"Point","coordinates":[-77.03891577717694,38.90541036020456]}},{"type":"Feature","properties":{"OBJECTID":62,"NAME":"Bank of America","ADDRESS":"1801 L STREET NW","ID":38,"ZIPCODE":20036,"WARD":2},"geometry":{"type":"Point","coordinates":[-77.04200669184164,38.903990474015686]}},{"type":"Feature","properties":{"OBJECTID":63,"NAME":"Bank of America","ADDRESS":"801 22ND STREET NW","ID":39,"ZIPCODE":20052,"WARD":2},"geometry":{"type":"Point","coordinates":[-77.04855950318395,38.89999732138977]}},{"type":"Feature","properties":{"OBJECTID":64,"NAME":"Bank of America","ADDRESS":"1990 K STREET NW","ID":40,"ZIPCODE":20006,"WARD":2},"geometry":{"type":"Point","coordinates":[-77.04455021463497,38.902192364658575]}},{"type":"Feature","properties":{"OBJECTID":65,"NAME":"Bank of America","ADDRESS":"1900 F STREET NW","ID":41,"ZIPCODE":20052,"WARD":2},"geometry":{"type":"Point","coordinates":[-77.04390876037708,38.897126575045874]}},{"type":"Feature","properties":{"OBJECTID":66,"NAME":"Bank of America","ADDRESS":"2001 PENNSYLVANIA AVENUE NW","ID":42,"ZIPCODE":20006,"WARD":2},"geometry":{"type":"Point","coordinates":[-77.04533394621778,38.901680748737384]}},{"type":"Feature","properties":{"OBJECTID":67,"NAME":"DGE FCU","ADDRESS":"300 INDIANA AVENUE NW","ID":43,"ZIPCODE":20001,"WARD":2},"geometry":{"type":"Point","coordinates":[-77.01654461815181,38.89432124366697]}},{"type":"Feature","properties":{"OBJECTID":68,"NAME":"Agriculture FCU","ADDRESS":"1000 JEFFERSON DRIVE SW","ID":44,"ZIPCODE":20560,"WARD":2},"geometry":{"type":"Point","coordinates":[-77.02599025404551,38.88881612786912]}},{"type":"Feature","properties":{"OBJECTID":69,"NAME":"7-Eleven (Allpoint)","ADDRESS":"1340 WISCONSIN AVENUE NW","ID":45,"ZIPCODE":20007,"WARD":2},"geometry":{"type":"Point","coordinates":[-77.06366311269481,38.90768284267244]}},{"type":"Feature","properties":{"OBJECTID":70,"NAME":"Lobby Mart (Allpoint)","ADDRESS":"501 3RD STREET NW","ID":46,"ZIPCODE":20001,"WARD":2},"geometry":{"type":"Point","coordinates":[-77.01478210171805,38.896567085937825]}},{"type":"Feature","properties":{"OBJECTID":71,"NAME":"CVS(Allpoint)","ADDRESS":"400 MASSACHUSETTS AVENUE NW","ID":47,"ZIPCODE":20001,"WARD":2},"geometry":{"type":"Point","coordinates":[-77.01688258397543,38.90010681768005]}},{"type":"Feature","properties":{"OBJECTID":72,"NAME":"CVS(Allpoint)","ADDRESS":"2819 M STREET NW","ID":48,"ZIPCODE":20007,"WARD":2},"geometry":{"type":"Point","coordinates":[-77.05769845142801,38.905518981686306]}},{"type":"Feature","properties":{"OBJECTID":73,"NAME":"CVS(Allpoint)","ADDRESS":"435 8TH STREET NW","ID":49,"ZIPCODE":20004,"WARD":2},"geometry":{"type":"Point","coordinates":[-77.02273217362762,38.89595197917928]}},{"type":"Feature","properties":{"OBJECTID":74,"NAME":"CVS(Allpoint)","ADDRESS":"2550 VIRGINIA AVENUE NW","ID":50,"ZIPCODE":20037,"WARD":2},"geometry":{"type":"Point","coordinates":[-77.05481061926534,38.899033993954305]}},{"type":"Feature","properties":{"OBJECTID":75,"NAME":"7-Eleven(Allpoint)","ADDRESS":"514 19TH STREET NW","ID":51,"ZIPCODE":20052,"WARD":2},"geometry":{"type":"Point","coordinates":[-77.04372432764693,38.89658028680473]}},{"type":"Feature","properties":{"OBJECTID":76,"NAME":"Walgreens(Allpoint)","ADDRESS":"1155 F STREET NW","ID":52,"ZIPCODE":20004,"WARD":2},"geometry":{"type":"Point","coordinates":[-77.02763673658451,38.897582066539464]}},{"type":"Feature","properties":{"OBJECTID":77,"NAME":"CVS(Allpoint)","ADDRESS":"1117 10TH STREET NW","ID":53,"ZIPCODE":20001,"WARD":2},"geometry":{"type":"Point","coordinates":[-77.02572491270985,38.90478783895058]}},{"type":"Feature","properties":{"OBJECTID":78,"NAME":"Marbi's news stand(star)","ADDRESS":"1730 RHODE ISLAND AVENUE NW","ID":55,"ZIPCODE":20036,"WARD":2},"geometry":{"type":"Point","coordinates":[-77.03962107781088,38.90594675065988]}},{"type":"Feature","properties":{"OBJECTID":79,"NAME":"Courtyard-DC Embassy row(star)","ADDRESS":"1600 RHODE ISLAND AVENUE NW","ID":56,"ZIPCODE":20036,"WARD":2},"geometry":{"type":"Point","coordinates":[-77.0369736685207,38.906673961835494]}},{"type":"Feature","properties":{"OBJECTID":80,"NAME":"Beacon hotel(star)","ADDRESS":"1615 RHODE ISLAND AVENUE NW","ID":57,"ZIPCODE":20036,"WARD":2},"geometry":{"type":"Point","coordinates":[-77.0380519752235,38.90705674072145]}},{"type":"Feature","properties":{"OBJECTID":81,"NAME":"Hotel Rouge(star)","ADDRESS":"1315 16TH STREET NW","ID":58,"ZIPCODE":20036,"WARD":2},"geometry":{"type":"Point","coordinates":[-77.03613249607923,38.90827383752778]}},{"type":"Feature","properties":{"OBJECTID":82,"NAME":"Doubletree(star)","ADDRESS":"1515 RHODE ISLAND AVENUE NW","ID":59,"ZIPCODE":20005,"WARD":2},"geometry":{"type":"Point","coordinates":[-77.03550962143343,38.90794333205716]}},{"type":"Feature","properties":{"OBJECTID":83,"NAME":"1500 Mass apts(star)","ADDRESS":"1500 MASSACHUSETTS AVENUE NW","ID":60,"ZIPCODE":20005,"WARD":2},"geometry":{"type":"Point","coordinates":[-77.03551121377436,38.90651019329218]}},{"type":"Feature","properties":{"OBJECTID":84,"NAME":"Lafayette FUC(star)","ADDRESS":"1615 M STREET NW","ID":61,"ZIPCODE":20036,"WARD":2},"geometry":{"type":"Point","coordinates":[-77.03735566921281,38.90586182756772]}},{"type":"Feature","properties":{"OBJECTID":85,"NAME":"1500 Market(star)","ADDRESS":"1500 MASSACHUSETTS AVENUE NW","ID":62,"ZIPCODE":20005,"WARD":2},"geometry":{"type":"Point","coordinates":[-77.03551121377436,38.90651019329218]}},{"type":"Feature","properties":{"OBJECTID":86,"NAME":"Metro Café(star)","ADDRESS":"1400 16TH STREET NW","ID":63,"ZIPCODE":20036,"WARD":2},"geometry":{"type":"Point","coordinates":[-77.03707464497175,38.90907528522658]}},{"type":"Feature","properties":{"OBJECTID":87,"NAME":"ACS FCU(star)","ADDRESS":"1155 16TH STREET NW","ID":64,"ZIPCODE":20036,"WARD":2},"geometry":{"type":"Point","coordinates":[-77.03605573993133,38.905369389058514]}},{"type":"Feature","properties":{"OBJECTID":88,"NAME":"Cornerstone Café Inc(star)","ADDRESS":"1501 M STREET NW","ID":65,"ZIPCODE":20005,"WARD":2},"geometry":{"type":"Point","coordinates":[-77.03497069109727,38.90597562063499]}},{"type":"Feature","properties":{"OBJECTID":89,"NAME":"Bank of America NA (NC)(star)","ADDRESS":"1710 MASSACHUSETTS AVENUE SE","ID":66,"ZIPCODE":20003,"WARD":2},"geometry":{"type":"Point","coordinates":[-76.98021581490386,38.88604870903452]}},{"type":"Feature","properties":{"OBJECTID":90,"NAME":"City Market(star)","ADDRESS":"1150 17TH STREET NW","ID":67,"ZIPCODE":20036,"WARD":2},"geometry":{"type":"Point","coordinates":[-77.03876528532881,38.90534140625821]}},{"type":"Feature","properties":{"OBJECTID":91,"NAME":"Branch Banking & Trust Company(star)","ADDRESS":"1730 RHODE ISLAND AVENUE NW","ID":68,"ZIPCODE":20036,"WARD":2},"geometry":{"type":"Point","coordinates":[-77.03962107781088,38.90594675065988]}},{"type":"Feature","properties":{"OBJECTID":92,"NAME":"Jack's Fresh(star)","ADDRESS":"1919 M STREET NW","ID":69,"ZIPCODE":20036,"WARD":2},"geometry":{"type":"Point","coordinates":[-77.04457082092944,38.90601910588238]}},{"type":"Feature","properties":{"OBJECTID":93,"NAME":"CVS(star)","ADDRESS":"1637 P STREET NW","ID":70,"ZIPCODE":20036,"WARD":2},"geometry":{"type":"Point","coordinates":[-77.03822029778526,38.90984296761194]}},{"type":"Feature","properties":{"OBJECTID":94,"NAME":"JR's Bar & Grill(star)","ADDRESS":"1517 17TH STREET NW","ID":71,"ZIPCODE":20036,"WARD":2},"geometry":{"type":"Point","coordinates":[-77.0382424534273,38.91030743061409]}},{"type":"Feature","properties":{"OBJECTID":95,"NAME":"Homewood Suites Washington(star)","ADDRESS":"1475 MASSACHUSETTS AVENUE NW","ID":72,"ZIPCODE":20005,"WARD":2},"geometry":{"type":"Point","coordinates":[-77.03358487374618,38.906684443937266]}},{"type":"Feature","properties":{"OBJECTID":96,"NAME":"Jacks' Famous Deli(star)","ADDRESS":"1129 15TH STREET NW","ID":73,"ZIPCODE":20005,"WARD":2},"geometry":{"type":"Point","coordinates":[-77.03422157292802,38.90463134588744]}},{"type":"Feature","properties":{"OBJECTID":97,"NAME":"To Market To Market(star)","ADDRESS":"1615 L STREET NW","ID":74,"ZIPCODE":20036,"WARD":2},"geometry":{"type":"Point","coordinates":[-77.03745341106273,38.90427677659216]}},{"type":"Feature","properties":{"OBJECTID":98,"NAME":"JR's Bar & Grill 2(star)","ADDRESS":"1519 17TH STREET NW","ID":75,"ZIPCODE":20036,"WARD":2},"geometry":{"type":"Point","coordinates":[-77.03820011647117,38.91048094517279]}},{"type":"Feature","properties":{"OBJECTID":99,"NAME":"Vida Fintess-Metropole(star)","ADDRESS":"1515 15TH STREET NW","ID":76,"ZIPCODE":20005,"WARD":2},"geometry":{"type":"Point","coordinates":[-77.03424927407302,38.90997941444159]}},{"type":"Feature","properties":{"OBJECTID":100,"NAME":"Capital One, NA(star)","ADDRESS":"1100 17TH STREET NW","ID":77,"ZIPCODE":20036,"WARD":2},"geometry":{"type":"Point","coordinates":[-77.03888748421524,38.90405587360212]}},{"type":"Feature","properties":{"OBJECTID":101,"NAME":"The Meeting Place(star)","ADDRESS":"100 17TH STREET SE","ID":78,"ZIPCODE":20003,"WARD":2},"geometry":{"type":"Point","coordinates":[-76.9805217253974,38.88853813638872]}},{"type":"Feature","properties":{"OBJECTID":102,"NAME":"Hotel Helix(star)","ADDRESS":"1430 RHODE ISLAND AVENUE NW","ID":79,"ZIPCODE":20005,"WARD":2},"geometry":{"type":"Point","coordinates":[-77.03300733021732,38.90808828946205]}},{"type":"Feature","properties":{"OBJECTID":103,"NAME":"AFL-CIO Employees FCU(star)","ADDRESS":"1125 15TH STREET NW","ID":80,"ZIPCODE":20005,"WARD":2},"geometry":{"type":"Point","coordinates":[-77.03410643998735,38.90447643587577]}},{"type":"Feature","properties":{"OBJECTID":104,"NAME":"National Capital Bank of Washington(star)","ADDRESS":"1737 17TH STREET NW","ID":81,"ZIPCODE":20009,"WARD":2},"geometry":{"type":"Point","coordinates":[-77.03820941390853,38.91384636834093]}},{"type":"Feature","properties":{"OBJECTID":105,"NAME":"Westin-Washington(star)","ADDRESS":"1400 M STREET NW","ID":82,"ZIPCODE":20005,"WARD":2},"geometry":{"type":"Point","coordinates":[-77.03343839039748,38.90532359434573]}},{"type":"Feature","properties":{"OBJECTID":106,"NAME":"7-Eleven(star)","ADDRESS":"1400 RHODE ISLAND AVENUE NW","ID":83,"ZIPCODE":20005,"WARD":2},"geometry":{"type":"Point","coordinates":[-77.03227793373864,38.9085091830799]}},{"type":"Feature","properties":{"OBJECTID":107,"NAME":"Renaissance Mayflower DC(star)","ADDRESS":"1127 CONNECTICUT AVENUE NW","ID":84,"ZIPCODE":20036,"WARD":2},"geometry":{"type":"Point","coordinates":[-77.0394688715579,38.904449704043266]}},{"type":"Feature","properties":{"OBJECTID":108,"NAME":"Lafayette FUC(star)","ADDRESS":"1440 P STREET NW","ID":85,"ZIPCODE":20005,"WARD":2},"geometry":{"type":"Point","coordinates":[-77.0335677516001,38.90949910711436]}},{"type":"Feature","properties":{"OBJECTID":109,"NAME":"Hilton Capital(star)","ADDRESS":"1000 16TH STREET NW","ID":86,"ZIPCODE":20006,"WARD":2},"geometry":{"type":"Point","coordinates":[-77.03689296620568,38.90288984838582]}},{"type":"Feature","properties":{"OBJECTID":110,"NAME":"The Daily Market(star)","ADDRESS":"1011 CONNECTICUT AVENUE NW","ID":87,"ZIPCODE":20036,"WARD":2},"geometry":{"type":"Point","coordinates":[-77.03917190284851,38.903009638268]}},{"type":"Feature","properties":{"OBJECTID":111,"NAME":"CVS(star)","ADDRESS":"1101 CONNECTICUT AVENUE NW","ID":88,"ZIPCODE":20036,"WARD":2},"geometry":{"type":"Point","coordinates":[-77.03973726698472,38.90403991310638]}},{"type":"Feature","properties":{"OBJECTID":112,"NAME":"Julias Empanadas(star)","ADDRESS":"1221 CONNECTICUT AVENUE NW","ID":89,"ZIPCODE":20036,"WARD":2},"geometry":{"type":"Point","coordinates":[-77.04118067582549,38.9066304856691]}},{"type":"Feature","properties":{"OBJECTID":113,"NAME":"CVS Store #02817(star)","ADDRESS":"1418 P STREET NW","ID":90,"ZIPCODE":20005,"WARD":2},"geometry":{"type":"Point","coordinates":[-77.03285272438303,38.9093502222459]}},{"type":"Feature","properties":{"OBJECTID":114,"NAME":"Colombo Bank(star)","ADDRESS":"1229 CONNECTICUT AVENUE NW","ID":91,"ZIPCODE":20036,"WARD":2},"geometry":{"type":"Point","coordinates":[-77.04143976272897,38.90706910070723]}},{"type":"Feature","properties":{"OBJECTID":115,"NAME":"Washington First Bank(star)","ADDRESS":"1025 CONNECTICUT AVENUE NW","ID":92,"ZIPCODE":20036,"WARD":2},"geometry":{"type":"Point","coordinates":[-77.03933900900276,38.903319379479164]}},{"type":"Feature","properties":{"OBJECTID":116,"NAME":"The Andover House(star)","ADDRESS":"1200 14TH STREET NW","ID":93,"ZIPCODE":20005,"WARD":2},"geometry":{"type":"Point","coordinates":[-77.0323836771836,38.9070236771915]}},{"type":"Feature","properties":{"OBJECTID":117,"NAME":"7-Eleven(star)","ADDRESS":"1100 VERMONT AVENUE NW","ID":95,"ZIPCODE":20005,"WARD":2},"geometry":{"type":"Point","coordinates":[-77.03338691909231,38.903981634666955]}},{"type":"Feature","properties":{"OBJECTID":118,"NAME":"Manufactuers & Traders Trust Co(star)","ADDRESS":"1680 K STREET NW","ID":96,"ZIPCODE":20006,"WARD":2},"geometry":{"type":"Point","coordinates":[-77.03823973925934,38.90223468792369]}},{"type":"Feature","properties":{"OBJECTID":119,"NAME":"Capital One, NA(star)","ADDRESS":"1001 CONNECTICUT AVENUE NW","ID":97,"ZIPCODE":20036,"WARD":2},"geometry":{"type":"Point","coordinates":[-77.0389669530074,38.90285377216128]}},{"type":"Feature","properties":{"OBJECTID":120,"NAME":"News World(star)","ADDRESS":"1001 CONNECTICUT AVENUE NW","ID":98,"ZIPCODE":20036,"WARD":2},"geometry":{"type":"Point","coordinates":[-77.0389669530074,38.90285377216128]}},{"type":"Feature","properties":{"OBJECTID":121,"NAME":"Bank of America NA (NC)(star)","ADDRESS":"1090 VERMONT AVENUE NW","ID":99,"ZIPCODE":20005,"WARD":2},"geometry":{"type":"Point","coordinates":[-77.033652397374,38.90342745458385]}},{"type":"Feature","properties":{"OBJECTID":122,"NAME":"Presidential Bank FSB(star)","ADDRESS":"1660 K STREET NW","ID":100,"ZIPCODE":20006,"WARD":2},"geometry":{"type":"Point","coordinates":[-77.03781327727157,38.902195730469934]}},{"type":"Feature","properties":{"OBJECTID":123,"NAME":"Aqua Nails DC (Money Pass)","ADDRESS":"1855 WISCONSIN AVENUE NW","ID":101,"ZIPCODE":20007,"WARD":2},"geometry":{"type":"Point","coordinates":[-77.06756091263733,38.91612588552243]}},{"type":"Feature","properties":{"OBJECTID":124,"NAME":"George at the Four Seasons (Money Pass)","ADDRESS":"2828 PENNSYLVANIA AVENUE NW","ID":102,"ZIPCODE":20007,"WARD":2},"geometry":{"type":"Point","coordinates":[-77.05792515030252,38.904996655248915]}},{"type":"Feature","properties":{"OBJECTID":125,"NAME":"Cardinal Bank (Money Pass)","ADDRESS":"1825 WISCONSIN AVENUE NW","ID":103,"ZIPCODE":20007,"WARD":2},"geometry":{"type":"Point","coordinates":[-77.06739661989249,38.91553827650421]}},{"type":"Feature","properties":{"OBJECTID":126,"NAME":"The Barrell House (Money Pass)","ADDRESS":"1341 14TH STREET NW","ID":105,"ZIPCODE":20005,"WARD":2},"geometry":{"type":"Point","coordinates":[-77.03156902754323,38.908615675279485]}},{"type":"Feature","properties":{"OBJECTID":127,"NAME":"Cardinal Bank (Money Pass)","ADDRESS":"1776 K STREET NW","ID":106,"ZIPCODE":20006,"WARD":2},"geometry":{"type":"Point","coordinates":[-77.04123805994587,38.90218880637101]}},{"type":"Feature","properties":{"OBJECTID":128,"NAME":"The Partnership FCU (Money Pass)","ADDRESS":"1776 F STREET NW","ID":108,"ZIPCODE":20006,"WARD":2},"geometry":{"type":"Point","coordinates":[-77.04126195128718,38.8970543019483]}},{"type":"Feature","properties":{"OBJECTID":129,"NAME":"Treasury Dept. FCU (Money Pass)","ADDRESS":"1700 G STREET NW","ID":109,"ZIPCODE":20552,"WARD":2},"geometry":{"type":"Point","coordinates":[-77.03982655880635,38.898156973612224]}},{"type":"Feature","properties":{"OBJECTID":130,"NAME":"Lafyette FCU (Money Pass)","ADDRESS":"811 VERMONT AVENUE NW","ID":110,"ZIPCODE":20571,"WARD":2},"geometry":{"type":"Point","coordinates":[-77.03434687478962,38.90076384147439]}},{"type":"Feature","properties":{"OBJECTID":131,"NAME":"Metro Square News (Money Pass)","ADDRESS":"901 NEW YORK AVENUE NW","ID":111,"ZIPCODE":20001,"WARD":2},"geometry":{"type":"Point","coordinates":[-77.0252666944609,38.902023364849434]}},{"type":"Feature","properties":{"OBJECTID":132,"NAME":"White House FCU (Money Pass)","ADDRESS":"1724 F STREET NW","ID":112,"ZIPCODE":20505,"WARD":2},"geometry":{"type":"Point","coordinates":[-77.04071381312944,38.89706296214529]}},{"type":"Feature","properties":{"OBJECTID":133,"NAME":"Dept. of Coomerce FCU (Money Pass)","ADDRESS":"1401 CONSTITUTION AVENUE NW","ID":113,"ZIPCODE":20230,"WARD":2},"geometry":{"type":"Point","coordinates":[-77.03281794375143,38.89264720258724]}},{"type":"Feature","properties":{"OBJECTID":134,"NAME":"Dept. of Labor FCU (Money Pass)","ADDRESS":"200 CONSTITUTION AVENUE NW","ID":114,"ZIPCODE":20210,"WARD":2},"geometry":{"type":"Point","coordinates":[-77.01439827055684,38.89333520151184]}},{"type":"Feature","properties":{"OBJECTID":135,"NAME":"7-Eleven(Allpoint)","ADDRESS":"1100 VERMONT AVENUE NW","ID":119,"ZIPCODE":20005,"WARD":2},"geometry":{"type":"Point","coordinates":[-77.03338691909231,38.903981634666955]}},{"type":"Feature","properties":{"OBJECTID":136,"NAME":"CVS(Allpoint)","ADDRESS":"1199 VERMONT AVENUE NW","ID":120,"ZIPCODE":20005,"WARD":2},"geometry":{"type":"Point","coordinates":[-77.03237338875937,38.90442341935965]}},{"type":"Feature","properties":{"OBJECTID":137,"NAME":"CVS(Allpoint)","ADDRESS":"1025 CONNECTICUT AVENUE NW","ID":121,"ZIPCODE":20036,"WARD":2},"geometry":{"type":"Point","coordinates":[-77.03933900900276,38.903319379479164]}},{"type":"Feature","properties":{"OBJECTID":138,"NAME":"7-Eleven(Allpoint)","ADDRESS":"1850 M STREET NW","ID":122,"ZIPCODE":20036,"WARD":2},"geometry":{"type":"Point","coordinates":[-77.04295035087468,38.90536949001297]}},{"type":"Feature","properties":{"OBJECTID":139,"NAME":"7-Eleven(Allpoint)","ADDRESS":"1500 K STREET NW","ID":123,"ZIPCODE":20005,"WARD":2},"geometry":{"type":"Point","coordinates":[-77.0349380572817,38.90219698608963]}},{"type":"Feature","properties":{"OBJECTID":140,"NAME":"7-Eleven(Allpoint)","ADDRESS":"1700 17TH STREET NW","ID":124,"ZIPCODE":20009,"WARD":2},"geometry":{"type":"Point","coordinates":[-77.03885747229894,38.91287631680483]}},{"type":"Feature","properties":{"OBJECTID":141,"NAME":"A1 Wine & Liquor(Allpoint)","ADDRESS":"1420 K STREET NW","ID":125,"ZIPCODE":20005,"WARD":2},"geometry":{"type":"Point","coordinates":[-77.0328134388087,38.902149587644814]}},{"type":"Feature","properties":{"OBJECTID":142,"NAME":"7-Eleven(Allpoint)","ADDRESS":"908 17TH STREET NW","ID":126,"ZIPCODE":20006,"WARD":2},"geometry":{"type":"Point","coordinates":[-77.03974526992363,38.90185024919813]}},{"type":"Feature","properties":{"OBJECTID":143,"NAME":"CVS(Allpoint)","ADDRESS":"6 DUPONT CIRCLE NW","ID":127,"ZIPCODE":20036,"WARD":2},"geometry":{"type":"Point","coordinates":[-77.04448718246853,38.90944780539837]}},{"type":"Feature","properties":{"OBJECTID":144,"NAME":"Barmy Wine & Liquor(Allpoint)","ADDRESS":"1912 L STREET NW","ID":128,"ZIPCODE":20036,"WARD":2},"geometry":{"type":"Point","coordinates":[-77.04411898969052,38.90359107568332]}},{"type":"Feature","properties":{"OBJECTID":145,"NAME":"CVS(Allpoint)","ADDRESS":"2000 M STREET NW","ID":129,"ZIPCODE":20036,"WARD":2},"geometry":{"type":"Point","coordinates":[-77.04534115546448,38.905223552114876]}},{"type":"Feature","properties":{"OBJECTID":146,"NAME":"1 West Dupont Circle Wine & Liquor(Allpoint)","ADDRESS":"2012 P STREET NW","ID":130,"ZIPCODE":20036,"WARD":2},"geometry":{"type":"Point","coordinates":[-77.04549427576666,38.90940381718997]}},{"type":"Feature","properties":{"OBJECTID":147,"NAME":"CVS(Allpoint)","ADDRESS":"2000 L STREET NW","ID":131,"ZIPCODE":20036,"WARD":2},"geometry":{"type":"Point","coordinates":[-77.04578709088626,38.90341531137657]}},{"type":"Feature","properties":{"OBJECTID":148,"NAME":"Walgreens(Allpoint)","ADDRESS":"1217 22ND STREET NW","ID":133,"ZIPCODE":20037,"WARD":2},"geometry":{"type":"Point","coordinates":[-77.04850400264898,38.90551865659749]}},{"type":"Feature","properties":{"OBJECTID":149,"NAME":"CVS(Allpoint)","ADDRESS":"717 14TH STREET NW","ID":134,"ZIPCODE":20005,"WARD":2},"geometry":{"type":"Point","coordinates":[-77.03156081112677,38.898906743019424]}},{"type":"Feature","properties":{"OBJECTID":150,"NAME":"State Liquors(Allpoint)","ADDRESS":"2159 P STREET NW","ID":135,"ZIPCODE":20037,"WARD":2},"geometry":{"type":"Point","coordinates":[-77.04852353993107,38.90983346753514]}},{"type":"Feature","properties":{"OBJECTID":151,"NAME":"CVS(Allpoint)","ADDRESS":"2240 M STREET NW","ID":136,"ZIPCODE":20037,"WARD":2},"geometry":{"type":"Point","coordinates":[-77.04944446171989,38.90506487194955]}},{"type":"Feature","properties":{"OBJECTID":152,"NAME":"7-Eleven(Allpoint)","ADDRESS":"912 NEW HAMPSHIRE AVENUE NW","ID":137,"ZIPCODE":20037,"WARD":2},"geometry":{"type":"Point","coordinates":[-77.05173556134498,38.90116515313514]}},{"type":"Feature","properties":{"OBJECTID":153,"NAME":"CVS(Allpoint)","ADDRESS":"1275 PENNSYLVANIA AVENUE NW","ID":138,"ZIPCODE":20004,"WARD":2},"geometry":{"type":"Point","coordinates":[-77.0289111775901,38.89569513594027]}},{"type":"Feature","properties":{"OBJECTID":154,"NAME":"CVS(Allpoint)","ADDRESS":"2125 E STREET NW","ID":139,"ZIPCODE":20037,"WARD":2},"geometry":{"type":"Point","coordinates":[-77.04777657071762,38.896304214770694]}},{"type":"Feature","properties":{"OBJECTID":155,"NAME":"Walgreens(Allpoint)","ADDRESS":"801 7TH STREET NW","ID":140,"ZIPCODE":20001,"WARD":2},"geometry":{"type":"Point","coordinates":[-77.02164208997677,38.9000017160187]}},{"type":"Feature","properties":{"OBJECTID":156,"NAME":"7-Eleven(Allpoint)","ADDRESS":"2617 P STREET NW","ID":141,"ZIPCODE":20007,"WARD":2},"geometry":{"type":"Point","coordinates":[-77.0553401792372,38.90953496387364]}},{"type":"Feature","properties":{"OBJECTID":157,"NAME":"CVS(Allpoint)","ADDRESS":"1403 WISCONSIN AVENUE NW","ID":142,"ZIPCODE":20007,"WARD":2},"geometry":{"type":"Point","coordinates":[-77.0636627084248,38.908650790015884]}},{"type":"Feature","properties":{"OBJECTID":158,"NAME":"United Bank","ADDRESS":"4900 MASSACHUSETTS AVENUE NW","ID":1,"ZIPCODE":20016,"WARD":3},"geometry":{"type":"Point","coordinates":[-77.09717243522013,38.945708584441206]}},{"type":"Feature","properties":{"OBJECTID":159,"NAME":"PNC","ADDRESS":"5530 CONNECTICUT AVENUE NW","ID":2,"ZIPCODE":20015,"WARD":3},"geometry":{"type":"Point","coordinates":[-77.07542392996218,38.96381441901853]}},{"type":"Feature","properties":{"OBJECTID":160,"NAME":"Bank of America","ADDRESS":"2440 WISCONSIN AVENUE NW","ID":3,"ZIPCODE":20007,"WARD":3},"geometry":{"type":"Point","coordinates":[-77.0728444153267,38.92196911857666]}},{"type":"Feature","properties":{"OBJECTID":161,"NAME":"Bank of America","ADDRESS":"4500 WISCONSIN AVENUE NW","ID":4,"ZIPCODE":20016,"WARD":3},"geometry":{"type":"Point","coordinates":[-77.08055249629905,38.94853657775952]}},{"type":"Feature","properties":{"OBJECTID":162,"NAME":"Bank of America","ADDRESS":"3401 CONNECTICUT AVENUE NW","ID":5,"ZIPCODE":20008,"WARD":3},"geometry":{"type":"Point","coordinates":[-77.05756542731017,38.93468729593133]}},{"type":"Feature","properties":{"OBJECTID":163,"NAME":"Bank of America","ADDRESS":"3519 CONNECTICUT AVENUE NW","ID":6,"ZIPCODE":20008,"WARD":3},"geometry":{"type":"Point","coordinates":[-77.05837158858641,38.936314606385245]}},{"type":"Feature","properties":{"OBJECTID":164,"NAME":"Bank of America","ADDRESS":"4201 CONNECTICUT AVENUE NW","ID":7,"ZIPCODE":20008,"WARD":3},"geometry":{"type":"Point","coordinates":[-77.06263695166281,38.94347705639948]}},{"type":"Feature","properties":{"OBJECTID":165,"NAME":"Bank of America","ADDRESS":"5201 WISCONSIN AVENUE NW","ID":8,"ZIPCODE":20015,"WARD":3},"geometry":{"type":"Point","coordinates":[-77.08358042447891,38.95724707541396]}},{"type":"Feature","properties":{"OBJECTID":166,"NAME":"Bank of America","ADDRESS":"4301 49TH STREET NW","ID":9,"ZIPCODE":20016,"WARD":3},"geometry":{"type":"Point","coordinates":[-77.09640665778218,38.944566607031426]}},{"type":"Feature","properties":{"OBJECTID":167,"NAME":"CVS (Allpoint)","ADDRESS":"4859 MACARTHUR BOULEVARD NW","ID":10,"ZIPCODE":20007,"WARD":3},"geometry":{"type":"Point","coordinates":[-77.09545721319861,38.9167670975163]}},{"type":"Feature","properties":{"OBJECTID":168,"NAME":"CVS(Allpoint)","ADDRESS":"3336 WISCONSIN AVENUE NW","ID":11,"ZIPCODE":20016,"WARD":3},"geometry":{"type":"Point","coordinates":[-77.07299916212476,38.934351493720094]}},{"type":"Feature","properties":{"OBJECTID":169,"NAME":"Walgreens(Allpoint)","ADDRESS":"3524 CONNECTICUT AVENUE NW","ID":12,"ZIPCODE":20008,"WARD":3},"geometry":{"type":"Point","coordinates":[-77.05940330706979,38.936448220188645]}},{"type":"Feature","properties":{"OBJECTID":170,"NAME":"CVS(Allpoint)","ADDRESS":"3327 CONNECTICUT AVENUE NW","ID":13,"ZIPCODE":20008,"WARD":3},"geometry":{"type":"Point","coordinates":[-77.05732572064319,38.93435788996087]}},{"type":"Feature","properties":{"OBJECTID":171,"NAME":"CVS(Allpoint)","ADDRESS":"2226 WISCONSIN AVENUE NW","ID":14,"ZIPCODE":20007,"WARD":3},"geometry":{"type":"Point","coordinates":[-77.07157366713047,38.91983664147806]}},{"type":"Feature","properties":{"OBJECTID":172,"NAME":"7-Eleven(Allpoint)","ADDRESS":"3000 CONNECTICUT AVENUE NW","ID":15,"ZIPCODE":20008,"WARD":3},"geometry":{"type":"Point","coordinates":[-77.05556773200796,38.92990025677232]}},{"type":"Feature","properties":{"OBJECTID":173,"NAME":"CVS(Allpoint)","ADDRESS":"2616 CONNECTICUT AVENUE NW","ID":16,"ZIPCODE":20008,"WARD":3},"geometry":{"type":"Point","coordinates":[-77.052278441892,38.924142667196016]}},{"type":"Feature","properties":{"OBJECTID":174,"NAME":"CVS(Allpoint)","ADDRESS":"4555 WISCONSIN AVENUE NW","ID":17,"ZIPCODE":20016,"WARD":3},"geometry":{"type":"Point","coordinates":[-77.08007367796108,38.949396476932115]}},{"type":"Feature","properties":{"OBJECTID":175,"NAME":"Treasury Dept. FCU(Allpoint)","ADDRESS":"701 MADISON STREET NW","ID":1,"ZIPCODE":20011,"WARD":4},"geometry":{"type":"Point","coordinates":[-77.02272541067147,38.95866931109245]}},{"type":"Feature","properties":{"OBJECTID":176,"NAME":"7-Eleven(Allpoint)","ADDRESS":"4000 GEORGIA AVENUE NW","ID":2,"ZIPCODE":20011,"WARD":4},"geometry":{"type":"Point","coordinates":[-77.02559506144124,38.94002969079717]}},{"type":"Feature","properties":{"OBJECTID":177,"NAME":"CVS(Allpoint)","ADDRESS":"5227 GEORGIA AVENUE NW","ID":3,"ZIPCODE":20011,"WARD":4},"geometry":{"type":"Point","coordinates":[-77.02726694883346,38.953737755958564]}},{"type":"Feature","properties":{"OBJECTID":178,"NAME":"Wells Fargo","ADDRESS":"1447 P STREET NW","ID":1,"ZIPCODE":20005,"WARD":5},"geometry":{"type":"Point","coordinates":[-77.03372413073923,38.909819038500906]}},{"type":"Feature","properties":{"OBJECTID":179,"NAME":"Wells Fargo","ADDRESS":"2119 BLADENSBURG ROAD NE","ID":2,"ZIPCODE":20018,"WARD":5},"geometry":{"type":"Point","coordinates":[-76.9702688975994,38.91959119652893]}},{"type":"Feature","properties":{"OBJECTID":180,"NAME":"PNC","ADDRESS":"800 FLORIDA AVENUE NE","ID":3,"ZIPCODE":20002,"WARD":5},"geometry":{"type":"Point","coordinates":[-76.99493200314244,38.905783462255705]}},{"type":"Feature","properties":{"OBJECTID":181,"NAME":"PNC","ADDRESS":"1348 4TH STREET NE","ID":4,"ZIPCODE":20002,"WARD":5},"geometry":{"type":"Point","coordinates":[-76.99882693365323,38.91009216869417]}},{"type":"Feature","properties":{"OBJECTID":182,"NAME":"Bank of America","ADDRESS":"1225 1ST STREET NW","ID":5,"ZIPCODE":20001,"WARD":5},"geometry":{"type":"Point","coordinates":[-77.01195147988649,38.90682864987]}},{"type":"Feature","properties":{"OBJECTID":183,"NAME":"Transit Employees FCU(Money Pass)","ADDRESS":"1401 W STREET NE","ID":6,"ZIPCODE":20018,"WARD":5},"geometry":{"type":"Point","coordinates":[-76.98811646760889,38.91740012509515]}},{"type":"Feature","properties":{"OBJECTID":184,"NAME":"Transit Employees FCU(Money Pass)","ADDRESS":"2000 BLADENSBURG ROAD NE","ID":7,"ZIPCODE":20018,"WARD":5},"geometry":{"type":"Point","coordinates":[-76.97182990428834,38.91899180868243]}},{"type":"Feature","properties":{"OBJECTID":185,"NAME":"CVS(Allpoint)","ADDRESS":"660 RHODE ISLAND AVENUE NE","ID":8,"ZIPCODE":20002,"WARD":5},"geometry":{"type":"Point","coordinates":[-76.99698096558734,38.922008630118725]}},{"type":"Feature","properties":{"OBJECTID":186,"NAME":"7-Eleven(Allpoint)","ADDRESS":"1233 BRENTWOOD ROAD NE","ID":9,"ZIPCODE":20018,"WARD":5},"geometry":{"type":"Point","coordinates":[-76.98921351863493,38.92051026709255]}},{"type":"Feature","properties":{"OBJECTID":187,"NAME":"Lowest Price Franklin(Allpoint)","ADDRESS":"2800 12TH STREET NE","ID":10,"ZIPCODE":20017,"WARD":5},"geometry":{"type":"Point","coordinates":[-76.99082793099622,38.92588440960253]}},{"type":"Feature","properties":{"OBJECTID":188,"NAME":"7-Eleven(Allpoint)","ADDRESS":"900 BLADENSBURG ROAD NE","ID":11,"ZIPCODE":20002,"WARD":5},"geometry":{"type":"Point","coordinates":[-76.98242761513575,38.90207531319492]}},{"type":"Feature","properties":{"OBJECTID":189,"NAME":"CVS(Allpoint)","ADDRESS":"845 BLADENSBURG ROAD NE","ID":12,"ZIPCODE":20002,"WARD":5},"geometry":{"type":"Point","coordinates":[-76.98211526685324,38.901316671997485]}},{"type":"Feature","properties":{"OBJECTID":190,"NAME":"CVS(Allpoint)","ADDRESS":"3601 12TH STREET NE","ID":13,"ZIPCODE":20017,"WARD":5},"geometry":{"type":"Point","coordinates":[-76.99090891535953,38.93381515272033]}},{"type":"Feature","properties":{"OBJECTID":191,"NAME":"7-Eleven(Allpoint)","ADDRESS":"333 HAWAII AVENUE NE","ID":14,"ZIPCODE":20011,"WARD":5},"geometry":{"type":"Point","coordinates":[-77.00086670942389,38.941295723097255]}},{"type":"Feature","properties":{"OBJECTID":192,"NAME":"7-Eleven(Allpoint)","ADDRESS":"3700 12TH STREET NE","ID":15,"ZIPCODE":20017,"WARD":5},"geometry":{"type":"Point","coordinates":[-76.99152006841011,38.9349174546352]}},{"type":"Feature","properties":{"OBJECTID":193,"NAME":"Wells Fargo","ADDRESS":"1200 1ST STREET NE","ID":1,"ZIPCODE":20002,"WARD":6},"geometry":{"type":"Point","coordinates":[-77.00635797511066,38.90609499782536]}},{"type":"Feature","properties":{"OBJECTID":194,"NAME":"Wells Fargo","ADDRESS":"20 M STREET SE","ID":2,"ZIPCODE":20003,"WARD":6},"geometry":{"type":"Point","coordinates":[-77.00790436461021,38.87679624820936]}},{"type":"Feature","properties":{"OBJECTID":195,"NAME":"Wells Fargo","ADDRESS":"215 PENNSYLVANIA AVENUE SE","ID":3,"ZIPCODE":20003,"WARD":6},"geometry":{"type":"Point","coordinates":[-77.00286202597539,38.887096762750936]}},{"type":"Feature","properties":{"OBJECTID":196,"NAME":"Wells Fargo","ADDRESS":"444 NORTH CAPITOL STREET NW","ID":4,"ZIPCODE":20001,"WARD":6},"geometry":{"type":"Point","coordinates":[-77.00982753551285,38.89582982269221]}},{"type":"Feature","properties":{"OBJECTID":197,"NAME":"Wells Fargo","ADDRESS":"490 L STREET NW","ID":5,"ZIPCODE":20001,"WARD":6},"geometry":{"type":"Point","coordinates":[-77.01835491740452,38.903496800889855]}},{"type":"Feature","properties":{"OBJECTID":198,"NAME":"Wells Fargo","ADDRESS":"600 MARYLAND AVENUE SW","ID":6,"ZIPCODE":20024,"WARD":6},"geometry":{"type":"Point","coordinates":[-77.02106338094872,38.885969571197634]}},{"type":"Feature","properties":{"OBJECTID":199,"NAME":"Capital one ","ADDRESS":"85 H STREET NW","ID":7,"ZIPCODE":20001,"WARD":6},"geometry":{"type":"Point","coordinates":[-77.01161008996115,38.90040960113048]}},{"type":"Feature","properties":{"OBJECTID":200,"NAME":"Capital one ","ADDRESS":"1075 5TH STREET NW","ID":8,"ZIPCODE":20001,"WARD":6},"geometry":{"type":"Point","coordinates":[-77.01870038554635,38.90331063348327]}},{"type":"Feature","properties":{"OBJECTID":201,"NAME":"Bank of America","ADDRESS":"1102 H STREET NE","ID":9,"ZIPCODE":20002,"WARD":6},"geometry":{"type":"Point","coordinates":[-76.99127584983763,38.900417689923884]}},{"type":"Feature","properties":{"OBJECTID":202,"NAME":"Bank of America","ADDRESS":"1330 MARYLAND AVENUE SW","ID":10,"ZIPCODE":20024,"WARD":6},"geometry":{"type":"Point","coordinates":[-77.03045116461404,38.88360955602706]}},{"type":"Feature","properties":{"OBJECTID":203,"NAME":"Bank of America","ADDRESS":"722 H STREET NE","ID":11,"ZIPCODE":20002,"WARD":6},"geometry":{"type":"Point","coordinates":[-76.9951863526649,38.900405304728395]}},{"type":"Feature","properties":{"OBJECTID":204,"NAME":"Bank of America","ADDRESS":"50 MASSACHUSETTS AVENUE NE","ID":12,"ZIPCODE":20002,"WARD":6},"geometry":{"type":"Point","coordinates":[-77.00618141401955,38.89754625633285]}},{"type":"Feature","properties":{"OBJECTID":205,"NAME":"Bank of America","ADDRESS":"425 8TH STREET SE","ID":13,"ZIPCODE":20003,"WARD":6},"geometry":{"type":"Point","coordinates":[-76.99524826592733,38.88299356249438]}},{"type":"Feature","properties":{"OBJECTID":206,"NAME":"Bank of America","ADDRESS":"55 M STREET SE","ID":14,"ZIPCODE":20003,"WARD":6},"geometry":{"type":"Point","coordinates":[-77.00699215244485,38.87626345969589]}},{"type":"Feature","properties":{"OBJECTID":207,"NAME":"Signal Financial ","ADDRESS":"1391 PENNSYLVANIA AVENUE SE","ID":15,"ZIPCODE":20003,"WARD":6},"geometry":{"type":"Point","coordinates":[-76.98659810657435,38.88035352235896]}},{"type":"Feature","properties":{"OBJECTID":208,"NAME":"Treasury Dept. FCU","ADDRESS":"1101 2ND STREET NE","ID":16,"ZIPCODE":20002,"WARD":6},"geometry":{"type":"Point","coordinates":[-77.00318032249706,38.90396032830022]}},{"type":"Feature","properties":{"OBJECTID":209,"NAME":"Treasury Dept. FCU","ADDRESS":"1 COLUMBUS CIRCLE NE","ID":17,"ZIPCODE":20002,"WARD":6},"geometry":{"type":"Point","coordinates":[-77.00443986155017,38.89677657075647]}},{"type":"Feature","properties":{"OBJECTID":210,"NAME":"HEW FCU","ADDRESS":"888 1ST STREET NE","ID":18,"ZIPCODE":20002,"WARD":6},"geometry":{"type":"Point","coordinates":[-77.00711982941058,38.90153699692386]}},{"type":"Feature","properties":{"OBJECTID":211,"NAME":"HEW FCU","ADDRESS":"200 INDEPENDENCE AVENUE SW","ID":19,"ZIPCODE":20201,"WARD":6},"geometry":{"type":"Point","coordinates":[-77.01439673783315,38.88688331256557]}},{"type":"Feature","properties":{"OBJECTID":212,"NAME":"Agriculture FCU","ADDRESS":"1400 INDEPENDENCE AVENUE SW","ID":20,"ZIPCODE":20250,"WARD":6},"geometry":{"type":"Point","coordinates":[-77.03003732572472,38.88672431210649]}},{"type":"Feature","properties":{"OBJECTID":213,"NAME":"Agriculture FCU","ADDRESS":"355 E STREET SW","ID":21,"ZIPCODE":20024,"WARD":6},"geometry":{"type":"Point","coordinates":[-77.01636371710894,38.8836031009287]}},{"type":"Feature","properties":{"OBJECTID":214,"NAME":"Sunoco(Allpoint)","ADDRESS":"1248 PENNSYLVANIA AVENUE SE","ID":22,"ZIPCODE":20003,"WARD":6},"geometry":{"type":"Point","coordinates":[-76.98865286110957,38.882064163078596]}},{"type":"Feature","properties":{"OBJECTID":215,"NAME":"CVS(Allpoint)","ADDRESS":"500 12TH STREET SE","ID":23,"ZIPCODE":20003,"WARD":6},"geometry":{"type":"Point","coordinates":[-76.98995733175094,38.88261685705175]}},{"type":"Feature","properties":{"OBJECTID":216,"NAME":"Treasury Dept. FCU(Money Pass)","ADDRESS":"1400 PENNSYLVANIA AVENUE SE","ID":24,"ZIPCODE":20003,"WARD":6},"geometry":{"type":"Point","coordinates":[-76.98468380545971,38.88033067597396]}},{"type":"Feature","properties":{"OBJECTID":217,"NAME":"Narfe Premier(Money Pass)","ADDRESS":"445 12TH STREET SW","ID":25,"ZIPCODE":20554,"WARD":6},"geometry":{"type":"Point","coordinates":[-77.02851428524527,38.88329340017831]}},{"type":"Feature","properties":{"OBJECTID":218,"NAME":"Transit Employee FCU(Money Pass)","ADDRESS":"1114 H STREET NE","ID":27,"ZIPCODE":20002,"WARD":6},"geometry":{"type":"Point","coordinates":[-76.99093784257363,38.90040667400063]}},{"type":"Feature","properties":{"OBJECTID":219,"NAME":"Lafyette FCU(Money Pass)","ADDRESS":"1300 PENNSYLVANIA AVENUE SE","ID":28,"ZIPCODE":20003,"WARD":6},"geometry":{"type":"Point","coordinates":[-76.98811584586345,38.881682153979206]}},{"type":"Feature","properties":{"OBJECTID":220,"NAME":"Democracy FCU(Money Pass)","ADDRESS":"888 1ST STREET NE","ID":29,"ZIPCODE":20002,"WARD":6},"geometry":{"type":"Point","coordinates":[-77.00711982941058,38.90153699692386]}},{"type":"Feature","properties":{"OBJECTID":221,"NAME":"Library of Congress(Money Pass)","ADDRESS":"101 INDEPENDENCE AVENUE SE","ID":30,"ZIPCODE":20540,"WARD":6},"geometry":{"type":"Point","coordinates":[-77.00472303202723,38.88710102631476]}},{"type":"Feature","properties":{"OBJECTID":222,"NAME":"Democracy FCU(Money Pass)","ADDRESS":"830 1ST STREET NE","ID":31,"ZIPCODE":20002,"WARD":6},"geometry":{"type":"Point","coordinates":[-77.00762737789145,38.90107988078488]}},{"type":"Feature","properties":{"OBJECTID":223,"NAME":"Govt. Printing office FCU(Money Pass)","ADDRESS":"732 NORTH CAPITOL STREET NW","ID":32,"ZIPCODE":20401,"WARD":6},"geometry":{"type":"Point","coordinates":[-77.00946957313066,38.899923613091225]}},{"type":"Feature","properties":{"OBJECTID":224,"NAME":"Democracy FCU(Money Pass)","ADDRESS":"330 C STREET SW","ID":33,"ZIPCODE":20201,"WARD":6},"geometry":{"type":"Point","coordinates":[-77.01637220428448,38.885430180402984]}},{"type":"Feature","properties":{"OBJECTID":225,"NAME":"Lafyette FCU(Money Pass)","ADDRESS":"409 3RD STREET SW","ID":34,"ZIPCODE":20024,"WARD":6},"geometry":{"type":"Point","coordinates":[-77.01558653985163,38.8846138580362]}},{"type":"Feature","properties":{"OBJECTID":226,"NAME":"Democracy FCU(Money Pass)","ADDRESS":"200 INDEPENDENCE AVENUE SW","ID":35,"ZIPCODE":20201,"WARD":6},"geometry":{"type":"Point","coordinates":[-77.01439673783315,38.88688331256557]}},{"type":"Feature","properties":{"OBJECTID":227,"NAME":"Democracy FCU(Money Pass)","ADDRESS":"400 MARYLAND AVENUE SW","ID":36,"ZIPCODE":20202,"WARD":6},"geometry":{"type":"Point","coordinates":[-77.01872997877236,38.886492544992976]}},{"type":"Feature","properties":{"OBJECTID":228,"NAME":"Democracy FCU(Money Pass)","ADDRESS":"901 D STREET SW","ID":37,"ZIPCODE":20024,"WARD":6},"geometry":{"type":"Point","coordinates":[-77.02474986373483,38.885058731143424]}},{"type":"Feature","properties":{"OBJECTID":229,"NAME":"Democracy FCU(Money Pass)","ADDRESS":"550 12TH STREET SW","ID":38,"ZIPCODE":20024,"WARD":6},"geometry":{"type":"Point","coordinates":[-77.0275108653013,38.8832668859475]}},{"type":"Feature","properties":{"OBJECTID":230,"NAME":"7-Eleven(Allpoint)","ADDRESS":"1622 7TH STREET NW","ID":39,"ZIPCODE":20001,"WARD":6},"geometry":{"type":"Point","coordinates":[-77.0222095262428,38.91190866754518]}},{"type":"Feature","properties":{"OBJECTID":231,"NAME":"Saints Paradise Cafeteria(Allpoint)","ADDRESS":"601 M STREET NW","ID":40,"ZIPCODE":20001,"WARD":6},"geometry":{"type":"Point","coordinates":[-77.02051439109985,38.905976711411796]}},{"type":"Feature","properties":{"OBJECTID":232,"NAME":"CVS(Allpoint)","ADDRESS":"1201 MARYLAND AVENUE SW","ID":41,"ZIPCODE":20024,"WARD":6},"geometry":{"type":"Point","coordinates":[-77.02935357397332,38.884699131084915]}},{"type":"Feature","properties":{"OBJECTID":233,"NAME":"CVS(Allpoint)","ADDRESS":"1200 1ST STREET NE","ID":42,"ZIPCODE":20002,"WARD":6},"geometry":{"type":"Point","coordinates":[-77.00635797511066,38.90609499782536]}},{"type":"Feature","properties":{"OBJECTID":234,"NAME":"Harris Teeter(Allpoint)","ADDRESS":"1201 1ST STREET NE","ID":43,"ZIPCODE":20002,"WARD":6},"geometry":{"type":"Point","coordinates":[-77.00549454925675,38.906023064916496]}},{"type":"Feature","properties":{"OBJECTID":235,"NAME":"7-Eleven(Allpoint)","ADDRESS":"1315 2ND STREET NE","ID":44,"ZIPCODE":20002,"WARD":6},"geometry":{"type":"Point","coordinates":[-77.00327848976382,38.90770383586033]}},{"type":"Feature","properties":{"OBJECTID":236,"NAME":"CVS(Allpoint)","ADDRESS":"645 H STREET NE","ID":45,"ZIPCODE":20002,"WARD":6},"geometry":{"type":"Point","coordinates":[-76.99645586573887,38.899982227448604]}},{"type":"Feature","properties":{"OBJECTID":237,"NAME":"J&V Pawn Shop(Allpoint)","ADDRESS":"703 H STREET NE","ID":46,"ZIPCODE":20002,"WARD":6},"geometry":{"type":"Point","coordinates":[-76.99591496586494,38.899931402643986]}},{"type":"Feature","properties":{"OBJECTID":238,"NAME":"CVS(Allpoint)","ADDRESS":"801 H STREET NE","ID":47,"ZIPCODE":20002,"WARD":6},"geometry":{"type":"Point","coordinates":[-76.994557858474,38.9000567437065]}},{"type":"Feature","properties":{"OBJECTID":239,"NAME":"CVS(Allpoint)","ADDRESS":"401 M STREET SW","ID":48,"ZIPCODE":20024,"WARD":6},"geometry":{"type":"Point","coordinates":[-77.01816363705923,38.87671600929981]}},{"type":"Feature","properties":{"OBJECTID":240,"NAME":"7-Eleven(Allpoint)","ADDRESS":"407 8TH STREET NE","ID":49,"ZIPCODE":20002,"WARD":6},"geometry":{"type":"Point","coordinates":[-76.99474669990633,38.895230341113916]}},{"type":"Feature","properties":{"OBJECTID":241,"NAME":"7-Eleven(Allpoint)","ADDRESS":"1101 SOUTH CAPITOL STREET SW","ID":50,"ZIPCODE":20003,"WARD":6},"geometry":{"type":"Point","coordinates":[-77.00955690467896,38.877167090418]}},{"type":"Feature","properties":{"OBJECTID":242,"NAME":"CVS(Allpoint)","ADDRESS":"1100 NEW JERSEY AVENUE SE","ID":51,"ZIPCODE":20003,"WARD":6},"geometry":{"type":"Point","coordinates":[-77.0039444585427,38.87695905072513]}},{"type":"Feature","properties":{"OBJECTID":243,"NAME":"CVS(Allpoint)","ADDRESS":"661 PENNSYLVANIA AVENUE SE","ID":52,"ZIPCODE":20003,"WARD":6},"geometry":{"type":"Point","coordinates":[-76.99640453970852,38.884470168371784]}},{"type":"Feature","properties":{"OBJECTID":244,"NAME":"7-Eleven(Allpoint)","ADDRESS":"429 8TH STREET SE","ID":53,"ZIPCODE":20003,"WARD":6},"geometry":{"type":"Point","coordinates":[-76.99527639516046,38.88288564315349]}},{"type":"Feature","properties":{"OBJECTID":245,"NAME":"Harris Teeter(Allpoint)","ADDRESS":"401 M STREET SE","ID":54,"ZIPCODE":20003,"WARD":6},"geometry":{"type":"Point","coordinates":[-77.0000965513043,38.87622430239726]}},{"type":"Feature","properties":{"OBJECTID":246,"NAME":"Harris Teeter(Allpoint)","ADDRESS":"1350 POTOMAC AVENUE SE","ID":55,"ZIPCODE":20003,"WARD":6},"geometry":{"type":"Point","coordinates":[-76.9866249868354,38.880209661424956]}},{"type":"Feature","properties":{"OBJECTID":247,"NAME":"Bank of America ","ADDRESS":"3845 MINNESOTA AVENUE NE","ID":1,"ZIPCODE":20019,"WARD":7},"geometry":{"type":"Point","coordinates":[-76.95033620621541,38.89298564665404]}},{"type":"Feature","properties":{"OBJECTID":248,"NAME":"PNC","ADDRESS":"1535 ALABAMA AVENUE SE","ID":1,"ZIPCODE":20032,"WARD":8},"geometry":{"type":"Point","coordinates":[-76.98099934251688,38.84494948017888]}},{"type":"Feature","properties":{"OBJECTID":249,"NAME":"Bank of America","ADDRESS":"2100 MARTIN LUTHER KING JR AVENUE SE","ID":2,"ZIPCODE":20020,"WARD":8},"geometry":{"type":"Point","coordinates":[-76.98924004501605,38.86544569930965]}},{"type":"Feature","properties":{"OBJECTID":250,"NAME":"NRL FCU(Money Pass)","ADDRESS":"4555 OVERLOOK AVENUE SW","ID":3,"ZIPCODE":20375,"WARD":8},"geometry":{"type":"Point","coordinates":[-77.01810595761354,38.822447025775816]}},{"type":"Feature","properties":{"OBJECTID":251,"NAME":"ACFN of Mid-Maryland, LLC","ADDRESS":"1914 Connecticut Avenue, NW ","ID":145,"ZIPCODE":20009,"WARD":2},"geometry":{"type":"Point","coordinates":[-77.04696279868865,38.91638190739335]}},{"type":"Feature","properties":{"OBJECTID":252,"NAME":"ACFN of Mid-Maryland, LLC","ADDRESS":"2101 16th Street, NW ","ID":146,"ZIPCODE":20009,"WARD":1},"geometry":{"type":"Point","coordinates":[-77.03606222969607,38.91866110469504]}},{"type":"Feature","properties":{"OBJECTID":253,"NAME":"ACFN of Mid-Maryland, LLC","ADDRESS":"2033 M Street, NW ","ID":147,"ZIPCODE":20036,"WARD":2},"geometry":{"type":"Point","coordinates":[-77.04628421702674,38.905912681597]}},{"type":"Feature","properties":{"OBJECTID":254,"NAME":"ACFN of Mid-Maryland, LLC","ADDRESS":"555 Pennsylvania Avenue, NW ","ID":148,"ZIPCODE":20001,"WARD":2},"geometry":{"type":"Point","coordinates":[-77.01935234043823,38.89313224780026]}},{"type":"Feature","properties":{"OBJECTID":255,"NAME":"ACFN of Mid-Maryland, LLC","ADDRESS":"1847 14th Street NW ","ID":149,"ZIPCODE":20009,"WARD":1},"geometry":{"type":"Point","coordinates":[-77.03173555321617,38.915438908143315]}},{"type":"Feature","properties":{"OBJECTID":256,"NAME":"ALLIED ASSOCIATES, INC.","ADDRESS":"1940 9th Street NW ","ID":158,"ZIPCODE":20001,"WARD":1},"geometry":{"type":"Point","coordinates":[-77.02422651007308,38.916718989046394]}},{"type":"Feature","properties":{"OBJECTID":257,"NAME":"ALLY FINANCIAL INC.","ADDRESS":"650 Massachusetts Avenue NW ","ID":150,"ZIPCODE":20001,"WARD":2},"geometry":{"type":"Point","coordinates":[-77.02143070049485,38.901661725341306]}},{"type":"Feature","properties":{"OBJECTID":258,"NAME":"ALLY FINANCIAL INC.","ADDRESS":"1617 17th Street ","ID":143,"ZIPCODE":20009,"WARD":2},"geometry":{"type":"Point","coordinates":[-77.03824139809775,38.91177975455535]}},{"type":"Feature","properties":{"OBJECTID":259,"NAME":"ALLY FINANCIAL INC.","ADDRESS":"300 New Jersey Ave NW ","ID":151,"ZIPCODE":20001,"WARD":6},"geometry":{"type":"Point","coordinates":[-77.01127450125463,38.89456906094688]}},{"type":"Feature","properties":{"OBJECTID":260,"NAME":"ALLY FINANCIAL INC.","ADDRESS":"1115A U Street NW ","ID":152,"ZIPCODE":20002,"WARD":1},"geometry":{"type":"Point","coordinates":[-77.02777024657425,38.91717140976797]}},{"type":"Feature","properties":{"OBJECTID":261,"NAME":"ALLY FINANCIAL INC.","ADDRESS":"2009 8th Street NW ","ID":153,"ZIPCODE":20009,"WARD":1},"geometry":{"type":"Point","coordinates":[-77.0226705264943,38.91743122983887]}},{"type":"Feature","properties":{"OBJECTID":262,"NAME":"ALLY FINANCIAL INC.","ADDRESS":"2009 8th Street NW box office","ID":154,"ZIPCODE":20009,"WARD":1},"geometry":{"type":"Point","coordinates":[-77.0226705264943,38.91743122983887]}},{"type":"Feature","properties":{"OBJECTID":263,"NAME":"American PCS Communications, LLC","ADDRESS":"2009 8th Street NW upstairs","ID":155,"ZIPCODE":20009,"WARD":1},"geometry":{"type":"Point","coordinates":[-77.0226705264943,38.91743122983887]}},{"type":"Feature","properties":{"OBJECTID":264,"NAME":"American PCS Communications, LLC","ADDRESS":"2036 G Street NW upstairs","ID":160,"ZIPCODE":20052,"WARD":2},"geometry":{"type":"Point","coordinates":[-77.04649720139732,38.89819387543935]}},{"type":"Feature","properties":{"OBJECTID":265,"NAME":"American PCS Communications, LLC","ADDRESS":"2450 18th Street NW upstairs","ID":165,"ZIPCODE":20052,"WARD":1},"geometry":{"type":"Point","coordinates":[-77.04273626651678,38.92193464271349]}},{"type":"Feature","properties":{"OBJECTID":266,"NAME":"AMKO INTERNATIONAL INC.","ADDRESS":"810 7th Street NW upstairs","ID":168,"ZIPCODE":20001,"WARD":2},"geometry":{"type":"Point","coordinates":[-77.02221963576815,38.90031780103479]}},{"type":"Feature","properties":{"OBJECTID":267,"NAME":"Aqua Finance, Inc.","ADDRESS":"4812 Macarthur Blvd NW upstairs","ID":167,"ZIPCODE":20007,"WARD":3},"geometry":{"type":"Point","coordinates":[-77.09608883399059,38.916307604988624]}},{"type":"Feature","properties":{"OBJECTID":268,"NAME":"AT&T Mobility Next Operations LLC","ADDRESS":"425 12th Street NW upstairs","ID":166,"ZIPCODE":20004,"WARD":2},"geometry":{"type":"Point","coordinates":[-77.0279121730051,38.89590941774249]}},{"type":"Feature","properties":{"OBJECTID":269,"NAME":"Atlantic Financial, Inc.","ADDRESS":"3634 Georgia Avenue NW upstairs","ID":164,"ZIPCODE":20010,"WARD":1},"geometry":{"type":"Point","coordinates":[-77.0243637566727,38.93502881707754]}},{"type":"Feature","properties":{"OBJECTID":270,"NAME":"ATM Services Corporation","ADDRESS":"1104 H Street NE ","ID":163,"ZIPCODE":20002,"WARD":6},"geometry":{"type":"Point","coordinates":[-76.99121671264486,38.90039498442737]}},{"type":"Feature","properties":{"OBJECTID":271,"NAME":"ATM Services Corporation","ADDRESS":"1475 Massachusetts Avenue, NW ","ID":162,"ZIPCODE":20005,"WARD":2},"geometry":{"type":"Point","coordinates":[-77.03358487374618,38.906684443937266]}},{"type":"Feature","properties":{"OBJECTID":272,"NAME":"ATM Services Corporation","ADDRESS":"1231 11th Street NW ","ID":161,"ZIPCODE":20001,"WARD":2},"geometry":{"type":"Point","coordinates":[-77.02669236915314,38.906798195829275]}},{"type":"Feature","properties":{"OBJECTID":273,"NAME":"ATM Services Corporation","ADDRESS":"4100 Georgia Ave NW ","ID":156,"ZIPCODE":20011,"WARD":4},"geometry":{"type":"Point","coordinates":[-77.02552898228886,38.94103647207362]}},{"type":"Feature","properties":{"OBJECTID":274,"NAME":"ATM Services Corporation","ADDRESS":"2301 f georgia ave nw ","ID":159,"ZIPCODE":20001,"WARD":1},"geometry":{"type":"Point","coordinates":[-77.0216229772062,38.920616143072685]}},{"type":"Feature","properties":{"OBJECTID":275,"NAME":"ATM Services Corporation","ADDRESS":"3701 Benning Road NE ","ID":157,"ZIPCODE":20019,"WARD":7},"geometry":{"type":"Point","coordinates":[-76.95107981103116,38.89484366676489]}},{"type":"Feature","properties":{"OBJECTID":276,"NAME":"ATM Services Corporation","ADDRESS":"2033 BENNING ROAD, NE ","ID":144,"ZIPCODE":20002,"WARD":2},"geometry":{"type":"Point","coordinates":[-76.97437721129705,38.89830914121039]}}]}