{"type":"FeatureCollection","features":[{"type":"Feature","properties":{"OBJECTID":1,"NAME":"The Bank of New York Mellon","ADDRESS":"1250 H STREET NW","ZIPCODE":"20005","ADDRESS_ID":240931,"Y":136856.85,"X":397475.23,"DIFFX":null,"DIFFY":null,"LATITUDE":38.89956024,"LONGITUDE":-77.02910586,"WARD":"Ward 2"},"geometry":{"type":"Point","coordinates":[-77.02910814893227,38.89956769286383]}},{"type":"Feature","properties":{"OBJECTID":2,"NAME":"The National Capital Bank of Washington","ADDRESS":"316 PENNSYLVANIA AVENUE SE","ZIPCODE":"20003","ADDRESS_ID":39317,"Y":135465.63,"X":399901.19,"DIFFX":null,"DIFFY":null,"LATITUDE":38.88703124,"LONGITUDE":-77.00113889,"WARD":"Ward 6"},"geometry":{"type":"Point","coordinates":[-77.00114117677772,38.88703868821398]}},{"type":"Feature","properties":{"OBJECTID":3,"NAME":" American Bank","ADDRESS":"1301 K STREET NW","ZIPCODE":"20005","ADDRESS_ID":240647,"Y":137230.54,"X":397352.63,"DIFFX":null,"DIFFY":null,"LATITUDE":38.90292621,"LONGITUDE":-77.03052064,"WARD":"Ward 2"},"geometry":{"type":"Point","coordinates":[-77.03052293750412,38.90293366534797]}},{"type":"Feature","properties":{"OBJECTID":4,"NAME":" HSBC Bank USA","ADDRESS":"1715 WISCONSIN AVENUE NW","ZIPCODE":"20007","ADDRESS_ID":261691,"Y":138489.28,"X":394218.2,"DIFFX":null,"DIFFY":null,"LATITUDE":38.91425034,"LONGITUDE":-77.06666703,"WARD":"Ward 2"},"geometry":{"type":"Point","coordinates":[-77.06666933405258,38.91425779810777]}},{"type":"Feature","properties":{"OBJECTID":5,"NAME":" Manufacturers and Traders Trust Company","ADDRESS":"555 12TH STREET NW","ZIPCODE":"20004","ADDRESS_ID":239135,"Y":136542.94,"X":397607.25,"DIFFX":null,"DIFFY":null,"LATITUDE":38.89673279,"LONGITUDE":-77.02758282,"WARD":"Ward 2"},"geometry":{"type":"Point","coordinates":[-77.02758511230758,38.89674024700726]}},{"type":"Feature","properties":{"OBJECTID":6,"NAME":" Manufacturers and Traders Trust Company","ADDRESS":"1350 I STREET NW","ZIPCODE":"20005","ADDRESS_ID":240651,"Y":137019.84,"X":397285.16,"DIFFX":null,"DIFFY":null,"LATITUDE":38.90102795,"LONGITUDE":-77.03129765,"WARD":"Ward 2"},"geometry":{"type":"Point","coordinates":[-77.03129994386212,38.90103539879858]}},{"type":"Feature","properties":{"OBJECTID":7,"NAME":" Manufacturers and Traders Trust Company","ADDRESS":"1680 K STREET NW","ZIPCODE":"20006","ADDRESS_ID":300674,"Y":137153.2,"X":396683.24,"DIFFX":null,"DIFFY":null,"LATITUDE":38.90222723,"LONGITUDE":-77.03823744,"WARD":"Ward 2"},"geometry":{"type":"Point","coordinates":[-77.03823973925934,38.90223468792369]}},{"type":"Feature","properties":{"OBJECTID":8,"NAME":" Manufacturers and Traders Trust Company","ADDRESS":"1899 L STREET NW","ZIPCODE":"20036","ADDRESS_ID":241298,"Y":137344.1,"X":396266.86,"DIFFX":null,"DIFFY":null,"LATITUDE":38.90394526,"LONGITUDE":-77.04303874,"WARD":"Ward 2"},"geometry":{"type":"Point","coordinates":[-77.04304103670088,38.9039527128448]}},{"type":"Feature","properties":{"OBJECTID":9,"NAME":" Wilmington Trust","ADDRESS":"1350 I STREET NW","ZIPCODE":"20005","ADDRESS_ID":240651,"Y":137019.84,"X":397285.16,"DIFFX":null,"DIFFY":null,"LATITUDE":38.90102795,"LONGITUDE":-77.03129765,"WARD":"Ward 2"},"geometry":{"type":"Point","coordinates":[-77.03129994386212,38.90103539879858]}},{"type":"Feature","properties":{"OBJECTID":10,"NAME":"Amalgamated Bank","ADDRESS":"1825 K STREET NW","ZIPCODE":"20006","ADDRESS_ID":240969,"Y":137223.83,"X":396319.26,"DIFFX":null,"DIFFY":null,"LATITUDE":38.90286205,"LONGITUDE":-77.04243398,"WARD":"Ward 2"},"geometry":{"type":"Point","coordinates":[-77.04243628127286,38.90286949914023]}},{"type":"Feature","properties":{"OBJECTID":11,"NAME":"American Bank ","ADDRESS":"5600 CONNECTICUT AVENUE NW","ZIPCODE":"20015","ADDRESS_ID":263862,"Y":144130.19,"X":393416.98,"DIFFX":null,"DIFFY":null,"LATITUDE":38.96505965,"LONGITUDE":-77.07595961,"WARD":"Ward 3"},"geometry":{"type":"Point","coordinates":[-77.07596192179413,38.965067118842605]}},{"type":"Feature","properties":{"OBJECTID":12,"NAME":"Atlantic Trust Company","ADDRESS":"1201 F STREET NW","ZIPCODE":"20004","ADDRESS_ID":240934,"Y":136645.58,"X":397525.9,"DIFFX":null,"DIFFY":null,"LATITUDE":38.89765719,"LONGITUDE":-77.02852097,"WARD":"Ward 2"},"geometry":{"type":"Point","coordinates":[-77.02852325780536,38.89766464030094]}},{"type":"Feature","properties":{"OBJECTID":13,"NAME":"Bank of America ","ADDRESS":"1835 COLUMBIA ROAD NW","ZIPCODE":"20009","ADDRESS_ID":295012,"Y":139304.24,"X":396204.7,"DIFFX":null,"DIFFY":null,"LATITUDE":38.92160259,"LONGITUDE":-77.04376621,"WARD":"Ward 1"},"geometry":{"type":"Point","coordinates":[-77.0437685041801,38.92161005100636]}},{"type":"Feature","properties":{"OBJECTID":14,"NAME":"Bank of America ","ADDRESS":"3131 MOUNT PLEASANT STREET NW","ZIPCODE":"20010","ADDRESS_ID":284590,"Y":140195.61,"X":396757.61,"DIFFX":null,"DIFFY":null,"LATITUDE":38.92963455,"LONGITUDE":-77.03739443,"WARD":"Ward 1"},"geometry":{"type":"Point","coordinates":[-77.03739672985046,38.92964200900678]}},{"type":"Feature","properties":{"OBJECTID":15,"NAME":"Bank of America ","ADDRESS":"3100 14TH STREET NW","ZIPCODE":"20010","ADDRESS_ID":306304,"Y":140158.41,"X":397140.04,"DIFFX":null,"DIFFY":null,"LATITUDE":38.92930077,"LONGITUDE":-77.03298372,"WARD":"Ward 1"},"geometry":{"type":"Point","coordinates":[-77.03298601467985,38.929308227973344]}},{"type":"Feature","properties":{"OBJECTID":16,"NAME":"Bank of America ","ADDRESS":"3500 GEORGIA AVENUE NW","ZIPCODE":"20010","ADDRESS_ID":232241,"Y":140581.42,"X":397907.39,"DIFFX":null,"DIFFY":null,"LATITUDE":38.93311354,"LONGITUDE":-77.02413522,"WARD":"Ward 1"},"geometry":{"type":"Point","coordinates":[-77.02413750845867,38.9331209953117]}},{"type":"Feature","properties":{"OBJECTID":17,"NAME":"Bank of America ","ADDRESS":"901 K STREET NW","ZIPCODE":"20001","ADDRESS_ID":306492,"Y":137213.76,"X":397791,"DIFFX":null,"DIFFY":null,"LATITUDE":38.90277626,"LONGITUDE":-77.02546677,"WARD":"Ward 2"},"geometry":{"type":"Point","coordinates":[-77.02546906096528,38.90278371629784]}},{"type":"Feature","properties":{"OBJECTID":18,"NAME":"Bank of America ","ADDRESS":"1001 PENNSYLVANIA AVENUE NW","ZIPCODE":"20004","ADDRESS_ID":239376,"Y":136355.77,"X":397700.68,"DIFFX":null,"DIFFY":null,"LATITUDE":38.89504695,"LONGITUDE":-77.02650516,"WARD":"Ward 2"},"geometry":{"type":"Point","coordinates":[-77.02650745573376,38.89505440042807]}},{"type":"Feature","properties":{"OBJECTID":19,"NAME":"Bank of America ","ADDRESS":"1090 VERMONT AVENUE NW","ZIPCODE":"20005","ADDRESS_ID":240259,"Y":137285.45,"X":397081.2,"DIFFX":null,"DIFFY":null,"LATITUDE":38.90342,"LONGITUDE":-77.0336501,"WARD":"Ward 2"},"geometry":{"type":"Point","coordinates":[-77.033652397374,38.90342745458385]}},{"type":"Feature","properties":{"OBJECTID":20,"NAME":"Bank of America ","ADDRESS":"600 14TH STREET NW","ZIPCODE":"20005","ADDRESS_ID":300970,"Y":136648.98,"X":397200.36,"DIFFX":null,"DIFFY":null,"LATITUDE":38.89768684,"LONGITUDE":-77.03227374,"WARD":"Ward 2"},"geometry":{"type":"Point","coordinates":[-77.03227603722735,38.89769429210207]}},{"type":"Feature","properties":{"OBJECTID":21,"NAME":"Bank of America ","ADDRESS":"700 13TH STREET NW","ZIPCODE":"20005","ADDRESS_ID":240654,"Y":136765.16,"X":397397.67,"DIFFX":null,"DIFFY":null,"LATITUDE":38.89873404,"LONGITUDE":-77.02999963,"WARD":"Ward 2"},"geometry":{"type":"Point","coordinates":[-77.0300019228716,38.89874149000777]}},{"type":"Feature","properties":{"OBJECTID":22,"NAME":"Bank of America ","ADDRESS":"888 17TH STREET NW","ZIPCODE":"20006","ADDRESS_ID":218778,"Y":137027.13,"X":396550.2,"DIFFX":null,"DIFFY":null,"LATITUDE":38.90109104,"LONGITUDE":-77.03977057,"WARD":"Ward 2"},"geometry":{"type":"Point","coordinates":[-77.03977286498989,38.90109849226736]}},{"type":"Feature","properties":{"OBJECTID":23,"NAME":"Bank of America ","ADDRESS":"2001 PENNSYLVANIA AVENUE NW","ZIPCODE":"20006","ADDRESS_ID":243321,"Y":137091.99,"X":396067.85,"DIFFX":null,"DIFFY":null,"LATITUDE":38.9016733,"LONGITUDE":-77.04533165,"WARD":"Ward 2"},"geometry":{"type":"Point","coordinates":[-77.04533394621778,38.901680748737384]}},{"type":"Feature","properties":{"OBJECTID":24,"NAME":"Bank of America ","ADDRESS":"1501 PENNSYLVANIA AVENUE NW","ZIPCODE":"20005","ADDRESS_ID":279202,"Y":136808.64,"X":397058.53,"DIFFX":null,"DIFFY":null,"LATITUDE":38.89912465,"LONGITUDE":-77.03390942,"WARD":"Ward 2"},"geometry":{"type":"Point","coordinates":[-77.03391171194819,38.89913210401579]}},{"type":"Feature","properties":{"OBJECTID":25,"NAME":"Bank of America ","ADDRESS":"1801 K STREET NW","ZIPCODE":"20006","ADDRESS_ID":279398,"Y":137238.84,"X":396353.41,"DIFFX":null,"DIFFY":null,"LATITUDE":38.9029974,"LONGITUDE":-77.04204036,"WARD":"Ward 2"},"geometry":{"type":"Point","coordinates":[-77.04204265731188,38.9030048568932]}},{"type":"Feature","properties":{"OBJECTID":26,"NAME":"Bank of America ","ADDRESS":"1339 WISCONSIN AVENUE NW","ZIPCODE":"20007","ADDRESS_ID":223694,"Y":137772.9,"X":394509.85,"DIFFX":null,"DIFFY":null,"LATITUDE":38.90779882,"LONGITUDE":-77.06329843,"WARD":"Ward 2"},"geometry":{"type":"Point","coordinates":[-77.06330073665629,38.90780627379833]}},{"type":"Feature","properties":{"OBJECTID":27,"NAME":"Bank of America ","ADDRESS":"3 DUPONT CIRCLE NW","ZIPCODE":"20036","ADDRESS_ID":302539,"Y":137930.49,"X":396144.62,"DIFFX":null,"DIFFY":null,"LATITUDE":38.90922714,"LONGITUDE":-77.04445132,"WARD":"Ward 2"},"geometry":{"type":"Point","coordinates":[-77.04445361337713,38.90923459062186]}},{"type":"Feature","properties":{"OBJECTID":28,"NAME":"Bank of America ","ADDRESS":"2201 C STREET NW","ZIPCODE":"20520","ADDRESS_ID":243360,"Y":136254.5,"X":395809.19,"DIFFX":null,"DIFFY":null,"LATITUDE":38.89412769,"LONGITUDE":-77.04830849,"WARD":"Ward 2"},"geometry":{"type":"Point","coordinates":[-77.04831078929475,38.89413514007599]}},{"type":"Feature","properties":{"OBJECTID":29,"NAME":"Bank of America ","ADDRESS":"3401 CONNECTICUT AVENUE NW","ZIPCODE":"20008","ADDRESS_ID":275650,"Y":140756.59,"X":395009.18,"DIFFX":null,"DIFFY":null,"LATITUDE":38.93467984,"LONGITUDE":-77.05756312,"WARD":"Ward 3"},"geometry":{"type":"Point","coordinates":[-77.05756542731017,38.93468729593133]}},{"type":"Feature","properties":{"OBJECTID":30,"NAME":"Bank of America ","ADDRESS":"4201 CONNECTICUT AVENUE NW","ZIPCODE":"20008","ADDRESS_ID":220631,"Y":141732.62,"X":394570.14,"DIFFX":null,"DIFFY":null,"LATITUDE":38.9434696,"LONGITUDE":-77.06263465,"WARD":"Ward 3"},"geometry":{"type":"Point","coordinates":[-77.06263695166281,38.94347705639948]}},{"type":"Feature","properties":{"OBJECTID":31,"NAME":"Bank of America ","ADDRESS":"5201 WISCONSIN AVENUE NW","ZIPCODE":"20015","ADDRESS_ID":274083,"Y":143262.67,"X":392755.93,"DIFFX":null,"DIFFY":null,"LATITUDE":38.95723961,"LONGITUDE":-77.08357811,"WARD":"Ward 3"},"geometry":{"type":"Point","coordinates":[-77.08358042447891,38.95724707541396]}},{"type":"Feature","properties":{"OBJECTID":32,"NAME":"Bank of America ","ADDRESS":"4301 49TH STREET NW","ZIPCODE":"20016","ADDRESS_ID":266468,"Y":141856.12,"X":391642.74,"DIFFX":null,"DIFFY":null,"LATITUDE":38.94455915,"LONGITUDE":-77.09640434,"WARD":"Ward 3"},"geometry":{"type":"Point","coordinates":[-77.09640665778218,38.944566607031426]}},{"type":"Feature","properties":{"OBJECTID":33,"NAME":"Bank of America ","ADDRESS":"915 RHODE ISLAND AVENUE NE","ZIPCODE":"20018","ADDRESS_ID":82316,"Y":139343.04,"X":400592.19,"DIFFX":null,"DIFFY":null,"LATITUDE":38.92196011,"LONGITUDE":-76.99317102,"WARD":"Ward 5"},"geometry":{"type":"Point","coordinates":[-76.99317329997865,38.92196757199262]}},{"type":"Feature","properties":{"OBJECTID":34,"NAME":"Bank of America ","ADDRESS":"722 H STREET NE","ZIPCODE":"20002","ADDRESS_ID":149093,"Y":136949.44,"X":400417.75,"DIFFX":null,"DIFFY":null,"LATITUDE":38.90039785,"LONGITUDE":-76.99518407,"WARD":"Ward 6"},"geometry":{"type":"Point","coordinates":[-76.9951863526649,38.900405304728395]}},{"type":"Feature","properties":{"OBJECTID":35,"NAME":"Bank of America ","ADDRESS":"55 M STREET SE","ZIPCODE":"20003","ADDRESS_ID":306664,"Y":134269.52,"X":399393.47,"DIFFX":null,"DIFFY":null,"LATITUDE":38.87625601,"LONGITUDE":-77.00698987,"WARD":"Ward 6"},"geometry":{"type":"Point","coordinates":[-77.00699215244485,38.87626345969589]}},{"type":"Feature","properties":{"OBJECTID":36,"NAME":"Bank of America ","ADDRESS":"201 PENNSYLVANIA AVENUE SE","ZIPCODE":"20003","ADDRESS_ID":52920,"Y":135493.83,"X":399715.89,"DIFFX":null,"DIFFY":null,"LATITUDE":38.88728523,"LONGITUDE":-77.00327469,"WARD":"Ward 6"},"geometry":{"type":"Point","coordinates":[-77.00327697495044,38.887292684119956]}},{"type":"Feature","properties":{"OBJECTID":37,"NAME":"Bank of America ","ADDRESS":"3821 MINNESOTA AVENUE NE","ZIPCODE":"20019","ADDRESS_ID":30095,"Y":136069.47,"X":404279.85,"DIFFX":null,"DIFFY":null,"LATITUDE":38.89246044,"LONGITUDE":-76.95066628,"WARD":"Ward 7"},"geometry":{"type":"Point","coordinates":[-76.95066854364106,38.89246789609231]}},{"type":"Feature","properties":{"OBJECTID":38,"NAME":"Bank of America ","ADDRESS":"2100 MARTIN LUTHER KING JR AVENUE SE","ZIPCODE":"20020","ADDRESS_ID":51883,"Y":133068.7,"X":400934.01,"DIFFX":null,"DIFFY":null,"LATITUDE":38.86543825,"LONGITUDE":-76.98923777,"WARD":"Ward 8"},"geometry":{"type":"Point","coordinates":[-76.98924004501605,38.86544569930965]}},{"type":"Feature","properties":{"OBJECTID":39,"NAME":"Bank of America ","ADDRESS":"4675 SOUTH CAPITOL STREET SW","ZIPCODE":"20032","ADDRESS_ID":276659,"Y":128156.63,"X":399845.08,"DIFFX":null,"DIFFY":null,"LATITUDE":38.82118862,"LONGITUDE":-77.00178398,"WARD":"Ward 8"},"geometry":{"type":"Point","coordinates":[-77.00178625597563,38.821196058395245]}},{"type":"Feature","properties":{"OBJECTID":40,"NAME":"Bank of Georgetown ","ADDRESS":"1301 U STREET NW","ZIPCODE":"20009","ADDRESS_ID":297578,"Y":138816.18,"X":397341.04,"DIFFX":null,"DIFFY":null,"LATITUDE":38.91721016,"LONGITUDE":-77.0306604,"WARD":"Ward 1"},"geometry":{"type":"Point","coordinates":[-77.03066269532367,38.91721761993416]}},{"type":"Feature","properties":{"OBJECTID":41,"NAME":"Bank of Georgetown ","ADDRESS":"444 8TH STREET NW","ZIPCODE":"20004","ADDRESS_ID":279784,"Y":136452.35,"X":397990.87,"DIFFX":null,"DIFFY":null,"LATITUDE":38.89591769,"LONGITUDE":-77.02316031,"WARD":"Ward 2"},"geometry":{"type":"Point","coordinates":[-77.02316260330771,38.89592513976841]}},{"type":"Feature","properties":{"OBJECTID":42,"NAME":"Bank of Georgetown ","ADDRESS":"1350 I STREET NW","ZIPCODE":"20005","ADDRESS_ID":240651,"Y":137019.84,"X":397285.16,"DIFFX":null,"DIFFY":null,"LATITUDE":38.90102795,"LONGITUDE":-77.03129765,"WARD":"Ward 2"},"geometry":{"type":"Point","coordinates":[-77.03129994386212,38.90103539879858]}},{"type":"Feature","properties":{"OBJECTID":43,"NAME":"Bank of Georgetown ","ADDRESS":"1001 WISCONSIN AVENUE NW","ZIPCODE":"20007","ADDRESS_ID":295206,"Y":137214.78,"X":394582.94,"DIFFX":null,"DIFFY":null,"LATITUDE":38.90277154,"LONGITUDE":-77.06245134,"WARD":"Ward 2"},"geometry":{"type":"Point","coordinates":[-77.06245364642196,38.90277898725169]}},{"type":"Feature","properties":{"OBJECTID":44,"NAME":"Bank of Georgetown ","ADDRESS":"1115 30TH STREET NW","ZIPCODE":"20007","ADDRESS_ID":304893,"Y":137423.77,"X":394884.41,"DIFFX":null,"DIFFY":null,"LATITUDE":38.904656,"LONGITUDE":-77.05897736,"WARD":"Ward 2"},"geometry":{"type":"Point","coordinates":[-77.05897966345289,38.90466344911978]}},{"type":"Feature","properties":{"OBJECTID":45,"NAME":"Bank of Georgetown ","ADDRESS":"1101 CONNECTICUT AVENUE NW","ZIPCODE":"20036","ADDRESS_ID":241795,"Y":137353.65,"X":396553.43,"DIFFX":null,"DIFFY":null,"LATITUDE":38.90403246,"LONGITUDE":-77.03973497,"WARD":"Ward 2"},"geometry":{"type":"Point","coordinates":[-77.03973726698472,38.90403991310638]}},{"type":"Feature","properties":{"OBJECTID":46,"NAME":"Branch Banking and Trust Company","ADDRESS":"1801 ADAMS MILL ROAD NW","ZIPCODE":"20009","ADDRESS_ID":218493,"Y":139465.82,"X":396319.49,"DIFFX":null,"DIFFY":null,"LATITUDE":38.92305865,"LONGITUDE":-77.04244335,"WARD":"Ward 1"},"geometry":{"type":"Point","coordinates":[-77.04244564819227,38.92306610408239]}},{"type":"Feature","properties":{"OBJECTID":47,"NAME":"Branch Banking and Trust Company","ADDRESS":"3101 14TH STREET NW","ZIPCODE":"20010","ADDRESS_ID":294813,"Y":140110.44,"X":397188.26,"DIFFX":null,"DIFFY":null,"LATITUDE":38.9288688,"LONGITUDE":-77.0324274,"WARD":"Ward 1"},"geometry":{"type":"Point","coordinates":[-77.03242970011328,38.92887625490983]}},{"type":"Feature","properties":{"OBJECTID":48,"NAME":"Branch Banking and Trust Company","ADDRESS":"614 H STREET NW","ZIPCODE":"20001","ADDRESS_ID":295092,"Y":136855.31,"X":398200.93,"DIFFX":null,"DIFFY":null,"LATITUDE":38.89954815,"LONGITUDE":-77.02073989,"WARD":"Ward 2"},"geometry":{"type":"Point","coordinates":[-77.02074218456806,38.8995556050815]}},{"type":"Feature","properties":{"OBJECTID":49,"NAME":"Branch Banking and Trust Company","ADDRESS":"1099 NEW YORK AVENUE NW","ZIPCODE":"20001","ADDRESS_ID":306169,"Y":137078.7,"X":397684.65,"DIFFX":null,"DIFFY":null,"LATITUDE":38.90155932,"LONGITUDE":-77.02669239,"WARD":"Ward 2"},"geometry":{"type":"Point","coordinates":[-77.02669467696259,38.90156677394011]}},{"type":"Feature","properties":{"OBJECTID":50,"NAME":"Branch Banking and Trust Company","ADDRESS":"601 13TH STREET NW","ZIPCODE":"20005","ADDRESS_ID":240933,"Y":136666.02,"X":397461.75,"DIFFX":null,"DIFFY":null,"LATITUDE":38.89784114,"LONGITUDE":-77.02926055,"WARD":"Ward 2"},"geometry":{"type":"Point","coordinates":[-77.02926284281422,38.89784858833427]}},{"type":"Feature","properties":{"OBJECTID":51,"NAME":"Branch Banking and Trust Company","ADDRESS":"815 CONNECTICUT AVENUE NW","ZIPCODE":"20006","ADDRESS_ID":218768,"Y":137012.68,"X":396705.73,"DIFFX":null,"DIFFY":null,"LATITUDE":38.90096147,"LONGITUDE":-77.03797749,"WARD":"Ward 2"},"geometry":{"type":"Point","coordinates":[-77.03797978802966,38.90096891819154]}},{"type":"Feature","properties":{"OBJECTID":52,"NAME":"Branch Banking and Trust Company","ADDRESS":"1909 K STREET NW","ZIPCODE":"20006","ADDRESS_ID":243209,"Y":137218.12,"X":396176.13,"DIFFX":null,"DIFFY":null,"LATITUDE":38.90281,"LONGITUDE":-77.04408405,"WARD":"Ward 2"},"geometry":{"type":"Point","coordinates":[-77.04408634623917,38.902817450379715]}},{"type":"Feature","properties":{"OBJECTID":53,"NAME":"Branch Banking and Trust Company","ADDRESS":"1365 WISCONSIN AVENUE NW","ZIPCODE":"20007","ADDRESS_ID":223699,"Y":137827.06,"X":394487.4,"DIFFX":null,"DIFFY":null,"LATITUDE":38.90828657,"LONGITUDE":-77.0635577,"WARD":"Ward 2"},"geometry":{"type":"Point","coordinates":[-77.06356000767988,38.90829402523972]}},{"type":"Feature","properties":{"OBJECTID":54,"NAME":"Branch Banking and Trust Company","ADDRESS":"1730 RHODE ISLAND AVENUE NW","ZIPCODE":"20036","ADDRESS_ID":241782,"Y":137565.32,"X":396563.6,"DIFFX":null,"DIFFY":null,"LATITUDE":38.9059393,"LONGITUDE":-77.03961878,"WARD":"Ward 2"},"geometry":{"type":"Point","coordinates":[-77.03962107781088,38.90594675065988]}},{"type":"Feature","properties":{"OBJECTID":55,"NAME":"Branch Banking and Trust Company","ADDRESS":"5200 WISCONSIN AVENUE NW","ZIPCODE":"20015","ADDRESS_ID":265898,"Y":143263.22,"X":392694.32,"DIFFX":null,"DIFFY":null,"LATITUDE":38.95724406,"LONGITUDE":-77.08428894,"WARD":"Ward 3"},"geometry":{"type":"Point","coordinates":[-77.08429125258776,38.95725151964652]}},{"type":"Feature","properties":{"OBJECTID":56,"NAME":"Branch Banking and Trust Company","ADDRESS":"360 H STREET NE","ZIPCODE":"20002","ADDRESS_ID":308512,"Y":136944.69,"X":399917.14,"DIFFX":null,"DIFFY":null,"LATITUDE":38.90035516,"LONGITUDE":-77.00095523,"WARD":"Ward 6"},"geometry":{"type":"Point","coordinates":[-77.0009575146668,38.900362610164656]}},{"type":"Feature","properties":{"OBJECTID":57,"NAME":"Branch Banking and Trust Company","ADDRESS":"317 PENNSYLVANIA AVENUE SE","ZIPCODE":"20003","ADDRESS_ID":278338,"Y":135409.99,"X":399873.83,"DIFFX":null,"DIFFY":null,"LATITUDE":38.88653001,"LONGITUDE":-77.00145424,"WARD":"Ward 6"},"geometry":{"type":"Point","coordinates":[-77.00145652065186,38.88653745836227]}},{"type":"Feature","properties":{"OBJECTID":58,"NAME":"Capital Bank","ADDRESS":"1776 I STREET NW","ZIPCODE":"20006","ADDRESS_ID":218481,"Y":137027.16,"X":396412.08,"DIFFX":null,"DIFFY":null,"LATITUDE":38.90109076,"LONGITUDE":-77.04136287,"WARD":"Ward 2"},"geometry":{"type":"Point","coordinates":[-77.04136516382002,38.90109820954668]}},{"type":"Feature","properties":{"OBJECTID":59,"NAME":"Capital One ","ADDRESS":"901 NEW YORK AVENUE NW","ZIPCODE":"20001","ADDRESS_ID":300397,"Y":137129.35,"X":397808.53,"DIFFX":null,"DIFFY":null,"LATITUDE":38.90201591,"LONGITUDE":-77.0252644,"WARD":"Ward 2"},"geometry":{"type":"Point","coordinates":[-77.0252666944609,38.902023364849434]}},{"type":"Feature","properties":{"OBJECTID":60,"NAME":"Capital One ","ADDRESS":"1200 F STREET NW","ZIPCODE":"20004","ADDRESS_ID":300895,"Y":136587.21,"X":397542.9,"DIFFX":null,"DIFFY":null,"LATITUDE":38.89713108,"LONGITUDE":-77.02832478,"WARD":"Ward 2"},"geometry":{"type":"Point","coordinates":[-77.02832707610135,38.89713886978049]}},{"type":"Feature","properties":{"OBJECTID":61,"NAME":"Capital One ","ADDRESS":"701 PENNSYLVANIA AVENUE NW","ZIPCODE":"20004","ADDRESS_ID":279889,"Y":136288.13,"X":398058.52,"DIFFX":null,"DIFFY":null,"LATITUDE":38.89443849,"LONGITUDE":-77.02238001,"WARD":"Ward 2"},"geometry":{"type":"Point","coordinates":[-77.02238230128947,38.894445937653]}},{"type":"Feature","properties":{"OBJECTID":62,"NAME":"Capital One ","ADDRESS":"925 15TH STREET NW","ZIPCODE":"20005","ADDRESS_ID":218798,"Y":137127.69,"X":397112.33,"DIFFX":null,"DIFFY":null,"LATITUDE":38.90199895,"LONGITUDE":-77.03329055,"WARD":"Ward 2"},"geometry":{"type":"Point","coordinates":[-77.03329284409146,38.90200639928407]}},{"type":"Feature","properties":{"OBJECTID":63,"NAME":"Capital One ","ADDRESS":"1717 PENNSYLVANIA AVENUE NW","ZIPCODE":"20006","ADDRESS_ID":279332,"Y":136846.4,"X":396496.29,"DIFFX":null,"DIFFY":null,"LATITUDE":38.89946275,"LONGITUDE":-77.04039114,"WARD":"Ward 2"},"geometry":{"type":"Point","coordinates":[-77.0403934375346,38.89947019830453]}},{"type":"Feature","properties":{"OBJECTID":64,"NAME":"Capital One ","ADDRESS":"1700 K STREET NW","ZIPCODE":"20006","ADDRESS_ID":243334,"Y":137147.58,"X":396544.82,"DIFFX":null,"DIFFY":null,"LATITUDE":38.90217607,"LONGITUDE":-77.0398332,"WARD":"Ward 2"},"geometry":{"type":"Point","coordinates":[-77.03983549359953,38.902183527708964]}},{"type":"Feature","properties":{"OBJECTID":65,"NAME":"Capital One ","ADDRESS":"1545 WISCONSIN AVENUE NW","ZIPCODE":"20007","ADDRESS_ID":223930,"Y":138038.65,"X":394396.62,"DIFFX":null,"DIFFY":null,"LATITUDE":38.91019207,"LONGITUDE":-77.06460608,"WARD":"Ward 2"},"geometry":{"type":"Point","coordinates":[-77.0646083852759,38.91019952644736]}},{"type":"Feature","properties":{"OBJECTID":66,"NAME":"Capital One ","ADDRESS":"1100 17TH STREET NW","ZIPCODE":"20036","ADDRESS_ID":241793,"Y":137355.39,"X":396627.14,"DIFFX":null,"DIFFY":null,"LATITUDE":38.90404842,"LONGITUDE":-77.03888519,"WARD":"Ward 2"},"geometry":{"type":"Point","coordinates":[-77.03888748421524,38.90405587360212]}},{"type":"Feature","properties":{"OBJECTID":67,"NAME":"Capital One ","ADDRESS":"3519 CONNECTICUT AVENUE NW","ZIPCODE":"20008","ADDRESS_ID":295765,"Y":140937.28,"X":394939.4,"DIFFX":null,"DIFFY":null,"LATITUDE":38.93630715,"LONGITUDE":-77.05836928,"WARD":"Ward 3"},"geometry":{"type":"Point","coordinates":[-77.05837158858641,38.936314606385245]}},{"type":"Feature","properties":{"OBJECTID":68,"NAME":"Capital One ","ADDRESS":"5714 CONNECTICUT AVENUE NW","ZIPCODE":"20015","ADDRESS_ID":285262,"Y":144264.5,"X":393348.75,"DIFFX":null,"DIFFY":null,"LATITUDE":38.96626904,"LONGITUDE":-77.0767482,"WARD":"Ward 3"},"geometry":{"type":"Point","coordinates":[-77.07675051138676,38.96627650215414]}},{"type":"Feature","properties":{"OBJECTID":69,"NAME":"Capital One ","ADDRESS":"4000 WISCONSIN AVENUE NW","ZIPCODE":"20016","ADDRESS_ID":222230,"Y":141535.98,"X":393333.56,"DIFFX":null,"DIFFY":null,"LATITUDE":38.94168969,"LONGITUDE":-77.07689696,"WARD":"Ward 3"},"geometry":{"type":"Point","coordinates":[-77.07689926523821,38.94169715324729]}},{"type":"Feature","properties":{"OBJECTID":70,"NAME":"Capital One ","ADDRESS":"4860 MASSACHUSETTS AVENUE NW","ZIPCODE":"20016","ADDRESS_ID":266470,"Y":141902.02,"X":391666.11,"DIFFX":null,"DIFFY":null,"LATITUDE":38.94497285,"LONGITUDE":-77.09613532,"WARD":"Ward 3"},"geometry":{"type":"Point","coordinates":[-77.09613763319915,38.944980309118066]}},{"type":"Feature","properties":{"OBJECTID":71,"NAME":"Capital One ","ADDRESS":"4400 MASSACHUSETTS AVENUE NW","ZIPCODE":"20016","ADDRESS_ID":223994,"Y":141247.38,"X":392334.76,"DIFFX":null,"DIFFY":null,"LATITUDE":38.93908176,"LONGITUDE":-77.08841482,"WARD":"Ward 3"},"geometry":{"type":"Point","coordinates":[-77.08841713128702,38.93908921390882]}},{"type":"Feature","properties":{"OBJECTID":72,"NAME":"Capital One ","ADDRESS":"1075 5TH STREET NW","ZIPCODE":"20001","ADDRESS_ID":305164,"Y":137272.11,"X":398378.13,"DIFFX":null,"DIFFY":null,"LATITUDE":38.90330318,"LONGITUDE":-77.0186981,"WARD":"Ward 6"},"geometry":{"type":"Point","coordinates":[-77.01870038554635,38.90331063348327]}},{"type":"Feature","properties":{"OBJECTID":73,"NAME":"Capital One ","ADDRESS":"85 H STREET NW","ZIPCODE":"20001","ADDRESS_ID":310066,"Y":136949.97,"X":398993.1,"DIFFX":null,"DIFFY":null,"LATITUDE":38.90040215,"LONGITUDE":-77.0116078,"WARD":"Ward 6"},"geometry":{"type":"Point","coordinates":[-77.01161008996115,38.90040960113048]}},{"type":"Feature","properties":{"OBJECTID":74,"NAME":"Capital One ","ADDRESS":"336 PENNSYLVANIA AVENUE SE","ZIPCODE":"20003","ADDRESS_ID":300706,"Y":135443.99,"X":399934.18,"DIFFX":null,"DIFFY":null,"LATITUDE":38.8868363,"LONGITUDE":-77.00075865,"WARD":"Ward 6"},"geometry":{"type":"Point","coordinates":[-77.00076092862395,38.886843749949215]}},{"type":"Feature","properties":{"OBJECTID":75,"NAME":"Capital One ","ADDRESS":"1100 NEW JERSEY AVENUE SE","ZIPCODE":"20003","ADDRESS_ID":285822,"Y":134346.72,"X":399657.93,"DIFFX":null,"DIFFY":null,"LATITUDE":38.8769516,"LONGITUDE":-77.00394218,"WARD":"Ward 6"},"geometry":{"type":"Point","coordinates":[-77.0039444585427,38.87695905072513]}},{"type":"Feature","properties":{"OBJECTID":76,"NAME":"Capital One ","ADDRESS":"2831 ALABAMA AVENUE SE","ZIPCODE":"20020","ADDRESS_ID":278276,"Y":132310.79,"X":402814.97,"DIFFX":null,"DIFFY":null,"LATITUDE":38.85860667,"LONGITUDE":-76.9675673,"WARD":"Ward 7"},"geometry":{"type":"Point","coordinates":[-76.96756957303384,38.85861412017712]}},{"type":"Feature","properties":{"OBJECTID":77,"NAME":"Cardinal Bank ","ADDRESS":"1776 K STREET NW","ZIPCODE":"20006","ADDRESS_ID":236718,"Y":137148.22,"X":396423.16,"DIFFX":null,"DIFFY":null,"LATITUDE":38.90218135,"LONGITUDE":-77.04123576,"WARD":"Ward 2"},"geometry":{"type":"Point","coordinates":[-77.04123805994587,38.90218880637101]}},{"type":"Feature","properties":{"OBJECTID":78,"NAME":"Cardinal Bank ","ADDRESS":"1825 WISCONSIN AVENUE NW","ZIPCODE":"20007","ADDRESS_ID":309641,"Y":138631.47,"X":394155.23,"DIFFX":null,"DIFFY":null,"LATITUDE":38.91553049,"LONGITUDE":-77.06739431,"WARD":"Ward 2"},"geometry":{"type":"Point","coordinates":[-77.06739661989249,38.91553827650421]}},{"type":"Feature","properties":{"OBJECTID":79,"NAME":"Carolina Premier Bank ","ADDRESS":"1299 PENNSYLVANIA AVENUE NW","ZIPCODE":"20004","ADDRESS_ID":285503,"Y":136497.57,"X":397456.71,"DIFFX":null,"DIFFY":null,"LATITUDE":38.89632366,"LONGITUDE":-77.02931803,"WARD":"Ward 2"},"geometry":{"type":"Point","coordinates":[-77.02932031942426,38.89633111476306]}},{"type":"Feature","properties":{"OBJECTID":80,"NAME":"Citibank ","ADDRESS":"3241 14TH STREET NW","ZIPCODE":"20010","ADDRESS_ID":302794,"Y":140273.32,"X":397213.13,"DIFFX":null,"DIFFY":null,"LATITUDE":38.93033615,"LONGITUDE":-77.03214124,"WARD":"Ward 1"},"geometry":{"type":"Point","coordinates":[-77.0321435392817,38.93034360780674]}},{"type":"Feature","properties":{"OBJECTID":81,"NAME":"Citibank ","ADDRESS":"750 9TH STREET NW","ZIPCODE":"20001","ADDRESS_ID":279928,"Y":136850.4,"X":397881.24,"DIFFX":null,"DIFFY":null,"LATITUDE":38.89950321,"LONGITUDE":-77.0244253,"WARD":"Ward 2"},"geometry":{"type":"Point","coordinates":[-77.02442759504397,38.89951066147832]}},{"type":"Feature","properties":{"OBJECTID":82,"NAME":"Citibank ","ADDRESS":"1101 PENNSYLVANIA AVENUE NW","ZIPCODE":"20004","ADDRESS_ID":242893,"Y":136367.9,"X":397622.64,"DIFFX":null,"DIFFY":null,"LATITUDE":38.89515601,"LONGITUDE":-77.0274048,"WARD":"Ward 2"},"geometry":{"type":"Point","coordinates":[-77.02740709565835,38.895163464315026]}},{"type":"Feature","properties":{"OBJECTID":83,"NAME":"Citibank ","ADDRESS":"1101 PENNSYLVANIA AVENUE NW","ZIPCODE":"20004","ADDRESS_ID":242893,"Y":136367.9,"X":397622.64,"DIFFX":null,"DIFFY":null,"LATITUDE":38.89515601,"LONGITUDE":-77.0274048,"WARD":"Ward 2"},"geometry":{"type":"Point","coordinates":[-77.02740709565835,38.895163464315026]}},{"type":"Feature","properties":{"OBJECTID":84,"NAME":"Citibank ","ADDRESS":"1400 G STREET NW","ZIPCODE":"20005","ADDRESS_ID":301002,"Y":136696.07,"X":397179.59,"DIFFX":null,"DIFFY":null,"LATITUDE":38.89811098,"LONGITUDE":-77.03251337,"WARD":"Ward 2"},"geometry":{"type":"Point","coordinates":[-77.0325156634527,38.898118429517965]}},{"type":"Feature","properties":{"OBJECTID":85,"NAME":"Citibank ","ADDRESS":"1000 VERMONT AVENUE NW","ZIPCODE":"20005","ADDRESS_ID":240261,"Y":137226.36,"X":397056.36,"DIFFX":null,"DIFFY":null,"LATITUDE":38.90288761,"LONGITUDE":-77.03393622,"WARD":"Ward 2"},"geometry":{"type":"Point","coordinates":[-77.03393851820272,38.90289506806793]}},{"type":"Feature","properties":{"OBJECTID":86,"NAME":"Citibank ","ADDRESS":"1775 PENNSYLVANIA AVENUE NW","ZIPCODE":"20006","ADDRESS_ID":279383,"Y":136891.64,"X":396412.01,"DIFFX":null,"DIFFY":null,"LATITUDE":38.89986994,"LONGITUDE":-77.04136297,"WARD":"Ward 2"},"geometry":{"type":"Point","coordinates":[-77.04136526283945,38.899877396506184]}},{"type":"Feature","properties":{"OBJECTID":87,"NAME":"Citibank ","ADDRESS":"1225 CONNECTICUT AVENUE NW","ZIPCODE":"20036","ADDRESS_ID":241767,"Y":137679.78,"X":396406.46,"DIFFX":null,"DIFFY":null,"LATITUDE":38.90696976,"LONGITUDE":-77.04143107,"WARD":"Ward 2"},"geometry":{"type":"Point","coordinates":[-77.04143336821606,38.90697721780705]}},{"type":"Feature","properties":{"OBJECTID":88,"NAME":"Citibank ","ADDRESS":"1000 CONNECTICUT AVENUE NW","ZIPCODE":"20036","ADDRESS_ID":243406,"Y":137224.33,"X":396545.22,"DIFFX":null,"DIFFY":null,"LATITUDE":38.90286713,"LONGITUDE":-77.03982897,"WARD":"Ward 2"},"geometry":{"type":"Point","coordinates":[-77.0398312682663,38.90287492055409]}},{"type":"Feature","properties":{"OBJECTID":89,"NAME":"Citibank ","ADDRESS":"1717 K STREET NW","ZIPCODE":"20006","ADDRESS_ID":298465,"Y":137221.28,"X":396508.66,"DIFFX":null,"DIFFY":null,"LATITUDE":38.90283985,"LONGITUDE":-77.04025044,"WARD":"Ward 2"},"geometry":{"type":"Point","coordinates":[-77.04025274052215,38.90284730060328]}},{"type":"Feature","properties":{"OBJECTID":90,"NAME":"Citibank ","ADDRESS":"2221 I STREET NW","ZIPCODE":"20037","ADDRESS_ID":307441,"Y":137014.65,"X":395695.79,"DIFFX":null,"DIFFY":null,"LATITUDE":38.90097485,"LONGITUDE":-77.04962044,"WARD":"Ward 2"},"geometry":{"type":"Point","coordinates":[-77.04962274225817,38.90098229917368]}},{"type":"Feature","properties":{"OBJECTID":91,"NAME":"Citibank ","ADDRESS":"1901 WISCONSIN AVENUE NW","ZIPCODE":"20007","ADDRESS_ID":279450,"Y":138721.09,"X":394118.24,"DIFFX":null,"DIFFY":null,"LATITUDE":38.9163379,"LONGITUDE":-77.0678216,"WARD":"Ward 2"},"geometry":{"type":"Point","coordinates":[-77.06782390840685,38.91634535639953]}},{"type":"Feature","properties":{"OBJECTID":92,"NAME":"Citibank ","ADDRESS":"5700 CONNECTICUT AVENUE NW","ZIPCODE":"20015","ADDRESS_ID":274635,"Y":144249.55,"X":393358.8,"DIFFX":null,"DIFFY":null,"LATITUDE":38.96613444,"LONGITUDE":-77.07663209,"WARD":"Ward 3"},"geometry":{"type":"Point","coordinates":[-77.07663440050331,38.966141904962]}},{"type":"Feature","properties":{"OBJECTID":93,"NAME":"Citibank ","ADDRESS":"5250 MACARTHUR BOULEVARD NW","ZIPCODE":"20016","ADDRESS_ID":285144,"Y":139906.67,"X":390969.05,"DIFFX":null,"DIFFY":null,"LATITUDE":38.92699126,"LONGITUDE":-77.10414996,"WARD":"Ward 3"},"geometry":{"type":"Point","coordinates":[-77.10415228068807,38.92699871903159]}},{"type":"Feature","properties":{"OBJECTID":94,"NAME":"Citibank ","ADDRESS":"5001 WISCONSIN AVENUE NW","ZIPCODE":"20016","ADDRESS_ID":266053,"Y":143008.32,"X":392854.12,"DIFFX":null,"DIFFY":null,"LATITUDE":38.95494917,"LONGITUDE":-77.0824426,"WARD":"Ward 3"},"geometry":{"type":"Point","coordinates":[-77.08244491198194,38.95495662839753]}},{"type":"Feature","properties":{"OBJECTID":95,"NAME":"Citibank ","ADDRESS":"1060 BRENTWOOD ROAD NE","ZIPCODE":"20018","ADDRESS_ID":302477,"Y":139152.47,"X":400543.6,"DIFFX":null,"DIFFY":null,"LATITUDE":38.92024343,"LONGITUDE":-76.9937315,"WARD":"Ward 5"},"geometry":{"type":"Point","coordinates":[-76.9937337783323,38.92025088676244]}},{"type":"Feature","properties":{"OBJECTID":96,"NAME":"Citibank ","ADDRESS":"600 PENNSYLVANIA AVENUE SE","ZIPCODE":"20003","ADDRESS_ID":5839,"Y":135315.02,"X":400199.02,"DIFFX":null,"DIFFY":null,"LATITUDE":38.88567447,"LONGITUDE":-76.99770612,"WARD":"Ward 6"},"geometry":{"type":"Point","coordinates":[-76.99770840168148,38.88568191894947]}},{"type":"Feature","properties":{"OBJECTID":97,"NAME":"Citibank ","ADDRESS":"3917 MINNESOTA AVENUE NE","ZIPCODE":"20019","ADDRESS_ID":29135,"Y":136219.83,"X":404363.02,"DIFFX":null,"DIFFY":null,"LATITUDE":38.89381453,"LONGITUDE":-76.94970662,"WARD":"Ward 7"},"geometry":{"type":"Point","coordinates":[-76.94970889023784,38.89382198580182]}},{"type":"Feature","properties":{"OBJECTID":98,"NAME":"City First Bank of D.C.","ADDRESS":"1432 U STREET NW","ZIPCODE":"20009","ADDRESS_ID":279168,"Y":138769.24,"X":397109.65,"DIFFX":null,"DIFFY":null,"LATITUDE":38.91678658,"LONGITUDE":-77.03332836,"WARD":"Ward 2"},"geometry":{"type":"Point","coordinates":[-77.03333065058851,38.916794038190574]}},{"type":"Feature","properties":{"OBJECTID":99,"NAME":"Colombo Bank","ADDRESS":"1301 9TH STREET NW","ZIPCODE":"20001","ADDRESS_ID":239905,"Y":137733.72,"X":397940.87,"DIFFX":null,"DIFFY":null,"LATITUDE":38.90746061,"LONGITUDE":-77.02374053,"WARD":"Ward 6"},"geometry":{"type":"Point","coordinates":[-77.02374282219071,38.90746806275754]}},{"type":"Feature","properties":{"OBJECTID":100,"NAME":"Colombo Bank","ADDRESS":"1660 L STREET NW","ZIPCODE":"20036","ADDRESS_ID":242035,"Y":137291.36,"X":396697.15,"DIFFX":null,"DIFFY":null,"LATITUDE":38.90347188,"LONGITUDE":-77.03807775,"WARD":"Ward 2"},"geometry":{"type":"Point","coordinates":[-77.03808004150459,38.903479334617124]}},{"type":"Feature","properties":{"OBJECTID":101,"NAME":"Congressional Bank","ADDRESS":"2101 K STREET NW","ZIPCODE":"20037","ADDRESS_ID":218615,"Y":137219.4,"X":395935.38,"DIFFX":null,"DIFFY":null,"LATITUDE":38.90282045,"LONGITUDE":-77.04685958,"WARD":"Ward 2"},"geometry":{"type":"Point","coordinates":[-77.04686187605897,38.90282790068587]}},{"type":"Feature","properties":{"OBJECTID":102,"NAME":"Eagle Bank ","ADDRESS":"700 7TH STREET NW","ZIPCODE":"20001","ADDRESS_ID":243354,"Y":136753.17,"X":398075.25,"DIFFX":null,"DIFFY":null,"LATITUDE":38.89862777,"LONGITUDE":-77.02218846,"WARD":"Ward 2"},"geometry":{"type":"Point","coordinates":[-77.02219075281467,38.89863522478238]}},{"type":"Feature","properties":{"OBJECTID":103,"NAME":"Eagle Bank ","ADDRESS":"1425 K STREET NW","ZIPCODE":"20005","ADDRESS_ID":240264,"Y":137228.82,"X":397131.37,"DIFFX":null,"DIFFY":null,"LATITUDE":38.90291002,"LONGITUDE":-77.03307147,"WARD":"Ward 2"},"geometry":{"type":"Point","coordinates":[-77.0330737635196,38.902917476648646]}},{"type":"Feature","properties":{"OBJECTID":104,"NAME":"Eagle Bank ","ADDRESS":"2001 K STREET NW","ZIPCODE":"20006","ADDRESS_ID":242788,"Y":137237.88,"X":396074.32,"DIFFX":null,"DIFFY":null,"LATITUDE":38.90298755,"LONGITUDE":-77.04525789,"WARD":"Ward 2"},"geometry":{"type":"Point","coordinates":[-77.0452601909529,38.90299500662892]}},{"type":"Feature","properties":{"OBJECTID":105,"NAME":"Eagle Bank ","ADDRESS":"1228 CONNECTICUT AVENUE NW","ZIPCODE":"20036","ADDRESS_ID":302357,"Y":137664.31,"X":396345.47,"DIFFX":null,"DIFFY":null,"LATITUDE":38.90683015,"LONGITUDE":-77.04213416,"WARD":"Ward 2"},"geometry":{"type":"Point","coordinates":[-77.04213645921189,38.90683760716668]}},{"type":"Feature","properties":{"OBJECTID":106,"NAME":"Eagle Bank ","ADDRESS":"1044 WISCONSIN AVENUE NW","ZIPCODE":"20007","ADDRESS_ID":278800,"Y":137327.58,"X":394538.58,"DIFFX":null,"DIFFY":null,"LATITUDE":38.9037874,"LONGITUDE":-77.06296365,"WARD":"Ward 2"},"geometry":{"type":"Point","coordinates":[-77.06296595395847,38.90379485493512]}},{"type":"Feature","properties":{"OBJECTID":107,"NAME":"First-Citizens Bank & Trust Company","ADDRESS":"1717 PENNSYLVANIA AVENUE NW","ZIPCODE":"20006","ADDRESS_ID":279332,"Y":136846.4,"X":396496.29,"DIFFX":null,"DIFFY":null,"LATITUDE":38.89946275,"LONGITUDE":-77.04039114,"WARD":"Ward 2"},"geometry":{"type":"Point","coordinates":[-77.0403934375346,38.89947019830453]}},{"type":"Feature","properties":{"OBJECTID":108,"NAME":"HSBC Bank USA,","ADDRESS":"1130 CONNECTICUT AVENUE NW","ZIPCODE":"20036","ADDRESS_ID":241787,"Y":137421.29,"X":396432.54,"DIFFX":null,"DIFFY":null,"LATITUDE":38.9046413,"LONGITUDE":-77.04112904,"WARD":"Ward 2"},"geometry":{"type":"Point","coordinates":[-77.04113134066105,38.90464875567815]}},{"type":"Feature","properties":{"OBJECTID":109,"NAME":"Industrial Bank","ADDRESS":"2000 11TH STREET NW","ZIPCODE":"20001","ADDRESS_ID":218578,"Y":138810.8,"X":397625.13,"DIFFX":null,"DIFFY":null,"LATITUDE":38.91716251,"LONGITUDE":-77.02738455,"WARD":"Ward 1"},"geometry":{"type":"Point","coordinates":[-77.02738684122211,38.917169968846416]}},{"type":"Feature","properties":{"OBJECTID":110,"NAME":"Industrial Bank","ADDRESS":"2000 14TH STREET NW","ZIPCODE":"20009","ADDRESS_ID":239976,"Y":138842.23,"X":397189.88,"DIFFX":null,"DIFFY":null,"LATITUDE":38.91744436,"LONGITUDE":-77.03240353,"WARD":"Ward 1"},"geometry":{"type":"Point","coordinates":[-77.03240582453643,38.917451816556756]}},{"type":"Feature","properties":{"OBJECTID":111,"NAME":"Industrial Bank","ADDRESS":"1317 F STREET NW","ZIPCODE":"20004","ADDRESS_ID":240661,"Y":136640.98,"X":397362.66,"DIFFX":null,"DIFFY":null,"LATITUDE":38.89761527,"LONGITUDE":-77.03040275,"WARD":"Ward 2"},"geometry":{"type":"Point","coordinates":[-77.03040504101101,38.89762272717036]}},{"type":"Feature","properties":{"OBJECTID":112,"NAME":"Industrial Bank","ADDRESS":"4812 GEORGIA AVENUE NW","ZIPCODE":"20011","ADDRESS_ID":252851,"Y":142378.5,"X":397622.94,"DIFFX":null,"DIFFY":null,"LATITUDE":38.94930143,"LONGITUDE":-77.02742216,"WARD":"Ward 4"},"geometry":{"type":"Point","coordinates":[-77.02742445377328,38.94930889132416]}},{"type":"Feature","properties":{"OBJECTID":113,"NAME":"Industrial Bank","ADDRESS":"125 45TH STREET NE","ZIPCODE":"20019","ADDRESS_ID":285981,"Y":135975.24,"X":405424.83,"DIFFX":null,"DIFFY":null,"LATITUDE":38.89160526,"LONGITUDE":-76.93746887,"WARD":"Ward 7"},"geometry":{"type":"Point","coordinates":[-76.93747113132387,38.891612718115105]}},{"type":"Feature","properties":{"OBJECTID":114,"NAME":"Industrial Bank","ADDRESS":"1800 MARTIN LUTHER KING JR AVENUE SE","ZIPCODE":"20020","ADDRESS_ID":56153,"Y":133299.78,"X":401034.28,"DIFFX":null,"DIFFY":null,"LATITUDE":38.8675198,"LONGITUDE":-76.98808205,"WARD":"Ward 8"},"geometry":{"type":"Point","coordinates":[-76.98808432506493,38.867527251164695]}},{"type":"Feature","properties":{"OBJECTID":115,"NAME":"John Marshall Bank ","ADDRESS":"1330 NEW HAMPSHIRE AVENUE NW","ZIPCODE":"20036","ADDRESS_ID":226576,"Y":137801.46,"X":396072.49,"DIFFX":null,"DIFFY":null,"LATITUDE":38.90806447,"LONGITUDE":-77.04528221,"WARD":"Ward 2"},"geometry":{"type":"Point","coordinates":[-77.04528451164248,38.90807192446543]}},{"type":"Feature","properties":{"OBJECTID":116,"NAME":"JP Morgan Chase Bank","ADDRESS":"800 CONNECTICUT AVENUE NW","ZIPCODE":"20006","ADDRESS_ID":301059,"Y":136950.64,"X":396665.25,"DIFFX":null,"DIFFY":null,"LATITUDE":38.90040243,"LONGITUDE":-77.03844386,"WARD":"Ward 2"},"geometry":{"type":"Point","coordinates":[-77.03844615443663,38.90040988698434]}},{"type":"Feature","properties":{"OBJECTID":117,"NAME":"Manufacturers and Traders Trust Company","ADDRESS":"1420 WISCONSIN AVENUE NW","ZIPCODE":"20007","ADDRESS_ID":277048,"Y":137818.31,"X":394442.05,"DIFFX":null,"DIFFY":null,"LATITUDE":38.90820746,"LONGITUDE":-77.0640805,"WARD":"Ward 2"},"geometry":{"type":"Point","coordinates":[-77.06408280117451,38.90821491660505]}},{"type":"Feature","properties":{"OBJECTID":118,"NAME":"Manufacturers and Traders Trust Company","ADDRESS":"2620 CONNECTICUT AVENUE NW","ZIPCODE":"20008","ADDRESS_ID":219094,"Y":139604.3,"X":395463.11,"DIFFX":null,"DIFFY":null,"LATITUDE":38.92430211,"LONGITUDE":-77.05231997,"WARD":"Ward 3"},"geometry":{"type":"Point","coordinates":[-77.05232227101845,38.92430957178474]}},{"type":"Feature","properties":{"OBJECTID":119,"NAME":"Manufacturers and Traders Trust Company","ADDRESS":"5630 CONNECTICUT AVENUE NW","ZIPCODE":"20015","ADDRESS_ID":263863,"Y":144200.23,"X":393377.58,"DIFFX":null,"DIFFY":null,"LATITUDE":38.9656903,"LONGITUDE":-77.07641491,"WARD":"Ward 3"},"geometry":{"type":"Point","coordinates":[-77.07641722374424,38.96569776014893]}},{"type":"Feature","properties":{"OBJECTID":120,"NAME":"Manufacturers and Traders Trust Company","ADDRESS":"6434 GEORGIA AVENUE NW","ZIPCODE":"20012","ADDRESS_ID":253291,"Y":144519.96,"X":397605.67,"DIFFX":null,"DIFFY":null,"LATITUDE":38.96859221,"LONGITUDE":-77.02762887,"WARD":"Ward 4"},"geometry":{"type":"Point","coordinates":[-77.02763116143986,38.96859967276047]}},{"type":"Feature","properties":{"OBJECTID":121,"NAME":"Manufacturers and Traders Trust Company","ADDRESS":"2865 ALABAMA AVENUE SE","ZIPCODE":"20020","ADDRESS_ID":278292,"Y":132483.63,"X":403033.19,"DIFFX":null,"DIFFY":null,"LATITUDE":38.86016296,"LONGITUDE":-76.96505232,"WARD":"Ward 7"},"geometry":{"type":"Point","coordinates":[-76.9650545868695,38.86017041060181]}},{"type":"Feature","properties":{"OBJECTID":122,"NAME":"PNC Bank","ADDRESS":"1779 COLUMBIA ROAD NW","ZIPCODE":"20009","ADDRESS_ID":235934,"Y":139493.12,"X":396333.82,"DIFFX":null,"DIFFY":null,"LATITUDE":38.92330463,"LONGITUDE":-77.04227824,"WARD":"Ward 1"},"geometry":{"type":"Point","coordinates":[-77.04228054155634,38.92331209115808]}},{"type":"Feature","properties":{"OBJECTID":123,"NAME":"PNC Bank","ADDRESS":"3300 14TH STREET NW","ZIPCODE":"20010","ADDRESS_ID":234465,"Y":140286,"X":397140.2,"DIFFX":null,"DIFFY":null,"LATITUDE":38.93045014,"LONGITUDE":-77.03298241,"WARD":"Ward 1"},"geometry":{"type":"Point","coordinates":[-77.03298470112703,38.93045759880085]}},{"type":"Feature","properties":{"OBJECTID":124,"NAME":"PNC Bank","ADDRESS":"1800 M STREET NW","ZIPCODE":"20036","ADDRESS_ID":241302,"Y":137497.81,"X":396336.44,"DIFFX":null,"DIFFY":null,"LATITUDE":38.90533023,"LONGITUDE":-77.04223738,"WARD":"Ward 2"},"geometry":{"type":"Point","coordinates":[-77.0422396805165,38.90533767938724]}},{"type":"Feature","properties":{"OBJECTID":125,"NAME":"PNC Bank","ADDRESS":"833 7TH STREET NW","ZIPCODE":"20001","ADDRESS_ID":300518,"Y":136983.89,"X":398123.16,"DIFFX":null,"DIFFY":null,"LATITUDE":38.90070628,"LONGITUDE":-77.02163679,"WARD":"Ward 2"},"geometry":{"type":"Point","coordinates":[-77.02163907809148,38.90071373734856]}},{"type":"Feature","properties":{"OBJECTID":126,"NAME":"PNC Bank","ADDRESS":"800 H STREET NE","ZIPCODE":"20002","ADDRESS_ID":151153,"Y":136953.3,"X":400454.84,"DIFFX":null,"DIFFY":null,"LATITUDE":38.9004326,"LONGITUDE":-76.99475648,"WARD":"Ward 6"},"geometry":{"type":"Point","coordinates":[-76.99475876692345,38.90044005860336]}},{"type":"Feature","properties":{"OBJECTID":127,"NAME":"PNC Bank","ADDRESS":"601 PENNSYLVANIA AVENUE NW","ZIPCODE":"20004","ADDRESS_ID":226088,"Y":136161.65,"X":398221.46,"DIFFX":null,"DIFFY":null,"LATITUDE":38.89329945,"LONGITUDE":-77.02050143,"WARD":"Ward 2"},"geometry":{"type":"Point","coordinates":[-77.02050371595686,38.89330690384587]}},{"type":"Feature","properties":{"OBJECTID":128,"NAME":"PNC Bank","ADDRESS":"1331 PENNSYLVANIA AVENUE NW","ZIPCODE":"20004","ADDRESS_ID":279081,"Y":136502.52,"X":397278.55,"DIFFX":null,"DIFFY":null,"LATITUDE":38.89636772,"LONGITUDE":-77.0313718,"WARD":"Ward 2"},"geometry":{"type":"Point","coordinates":[-77.03137409653789,38.89637517260674]}},{"type":"Feature","properties":{"OBJECTID":129,"NAME":"PNC Bank","ADDRESS":"1405 P STREET NW","ZIPCODE":"20005","ADDRESS_ID":303731,"Y":137993.97,"X":397200.84,"DIFFX":null,"DIFFY":null,"LATITUDE":38.90980298,"LONGITUDE":-77.03227369,"WARD":"Ward 2"},"geometry":{"type":"Point","coordinates":[-77.03227598610657,38.90981043919212]}},{"type":"Feature","properties":{"OBJECTID":130,"NAME":"PNC Bank","ADDRESS":"1100 H STREET NW","ZIPCODE":"20005","ADDRESS_ID":239128,"Y":136852.8,"X":397624.83,"DIFFX":null,"DIFFY":null,"LATITUDE":38.89952417,"LONGITUDE":-77.02738124,"WARD":"Ward 2"},"geometry":{"type":"Point","coordinates":[-77.02738352745786,38.899531626014465]}},{"type":"Feature","properties":{"OBJECTID":131,"NAME":"PNC Bank","ADDRESS":"1400 K STREET NW","ZIPCODE":"20005","ADDRESS_ID":240269,"Y":137146.36,"X":397188.82,"DIFFX":null,"DIFFY":null,"LATITUDE":38.90216738,"LONGITUDE":-77.03240881,"WARD":"Ward 2"},"geometry":{"type":"Point","coordinates":[-77.0324111041189,38.90217483328029]}},{"type":"Feature","properties":{"OBJECTID":132,"NAME":"PNC Bank","ADDRESS":"1919 PENNSYLVANIA AVENUE NW","ZIPCODE":"20006","ADDRESS_ID":241082,"Y":137007.6,"X":396156.6,"DIFFX":null,"DIFFY":null,"LATITUDE":38.90091347,"LONGITUDE":-77.04430803,"WARD":"Ward 2"},"geometry":{"type":"Point","coordinates":[-77.04431032266058,38.90092092604523]}},{"type":"Feature","properties":{"OBJECTID":133,"NAME":"PNC Bank","ADDRESS":"800 17TH STREET NW","ZIPCODE":"20006","ADDRESS_ID":218758,"Y":136959.39,"X":396552.61,"DIFFX":null,"DIFFY":null,"LATITUDE":38.90048082,"LONGITUDE":-77.03974245,"WARD":"Ward 2"},"geometry":{"type":"Point","coordinates":[-77.0397447415984,38.90048827554171]}},{"type":"Feature","properties":{"OBJECTID":134,"NAME":"PNC Bank","ADDRESS":"1913 MASSACHUSETTS AVENUE NW","ZIPCODE":"20036","ADDRESS_ID":300942,"Y":138040.3,"X":396159.31,"DIFFX":null,"DIFFY":null,"LATITUDE":38.91021641,"LONGITUDE":-77.04428256,"WARD":"Ward 2"},"geometry":{"type":"Point","coordinates":[-77.04428485649683,38.910223861131755]}},{"type":"Feature","properties":{"OBJECTID":135,"NAME":"PNC Bank","ADDRESS":"1800 M STREET NW","ZIPCODE":"20036","ADDRESS_ID":241302,"Y":137497.81,"X":396336.44,"DIFFX":null,"DIFFY":null,"LATITUDE":38.90533023,"LONGITUDE":-77.04223738,"WARD":"Ward 2"},"geometry":{"type":"Point","coordinates":[-77.0422396805165,38.90533767938724]}},{"type":"Feature","properties":{"OBJECTID":136,"NAME":"PNC Bank","ADDRESS":"1920 L STREET NW","ZIPCODE":"20036","ADDRESS_ID":242545,"Y":137294.74,"X":396141.83,"DIFFX":null,"DIFFY":null,"LATITUDE":38.90350007,"LONGITUDE":-77.04447991,"WARD":"Ward 2"},"geometry":{"type":"Point","coordinates":[-77.04448220934309,38.903507520574934]}},{"type":"Feature","properties":{"OBJECTID":137,"NAME":"PNC Bank","ADDRESS":"2501 PENNSYLVANIA AVENUE NW","ZIPCODE":"20037","ADDRESS_ID":293225,"Y":137352.33,"X":395343.02,"DIFFX":null,"DIFFY":null,"LATITUDE":38.90401499,"LONGITUDE":-77.05368959,"WARD":"Ward 2"},"geometry":{"type":"Point","coordinates":[-77.0536918886849,38.9040224420907]}},{"type":"Feature","properties":{"OBJECTID":138,"NAME":"PNC Bank","ADDRESS":"1201 WISCONSIN AVENUE NW","ZIPCODE":"20007","ADDRESS_ID":272025,"Y":137503.97,"X":394575.67,"DIFFX":null,"DIFFY":null,"LATITUDE":38.90537661,"LONGITUDE":-77.06253744,"WARD":"Ward 2"},"geometry":{"type":"Point","coordinates":[-77.06253974374982,38.90538406760598]}},{"type":"Feature","properties":{"OBJECTID":139,"NAME":"PNC Bank","ADDRESS":"5252 WISCONSIN AVENUE NW","ZIPCODE":"20015","ADDRESS_ID":265899,"Y":143429.1,"X":392620.17,"DIFFX":null,"DIFFY":null,"LATITUDE":38.95873773,"LONGITUDE":-77.08514623,"WARD":"Ward 3"},"geometry":{"type":"Point","coordinates":[-77.08514853965073,38.958745189604876]}},{"type":"Feature","properties":{"OBJECTID":140,"NAME":"PNC Bank","ADDRESS":"5530 CONNECTICUT AVENUE NW","ZIPCODE":"20015","ADDRESS_ID":263837,"Y":143991.09,"X":393463.49,"DIFFX":null,"DIFFY":null,"LATITUDE":38.96380696,"LONGITUDE":-77.07542162,"WARD":"Ward 3"},"geometry":{"type":"Point","coordinates":[-77.07542392996218,38.96381441901853]}},{"type":"Feature","properties":{"OBJECTID":141,"NAME":"PNC Bank","ADDRESS":"4835 MASSACHUSETTS AVENUE NW","ZIPCODE":"20016","ADDRESS_ID":269570,"Y":141937.02,"X":391721.85,"DIFFX":null,"DIFFY":null,"LATITUDE":38.94528867,"LONGITUDE":-77.09549275,"WARD":"Ward 3"},"geometry":{"type":"Point","coordinates":[-77.09549506886778,38.94529612594569]}},{"type":"Feature","properties":{"OBJECTID":142,"NAME":"PNC Bank","ADDRESS":"7601 GEORGIA AVENUE NW","ZIPCODE":"20012","ADDRESS_ID":253715,"Y":145975.5,"X":397723.39,"DIFFX":null,"DIFFY":null,"LATITUDE":38.98170436,"LONGITUDE":-77.02627529,"WARD":"Ward 4"},"geometry":{"type":"Point","coordinates":[-77.02627759114648,38.981711826253964]}},{"type":"Feature","properties":{"OBJECTID":143,"NAME":"PNC Bank","ADDRESS":"1348 4TH STREET NE","ZIPCODE":"20002","ADDRESS_ID":286090,"Y":138024.75,"X":400101.94,"DIFFX":null,"DIFFY":null,"LATITUDE":38.91008471,"LONGITUDE":-76.99882465,"WARD":"Ward 5"},"geometry":{"type":"Point","coordinates":[-76.99882693365323,38.91009216869417]}},{"type":"Feature","properties":{"OBJECTID":144,"NAME":"PNC Bank","ADDRESS":"3806 12TH STREET NE","ZIPCODE":"20017","ADDRESS_ID":156248,"Y":140966.26,"X":400770.95,"DIFFX":null,"DIFFY":null,"LATITUDE":38.93658244,"LONGITUDE":-76.99110778,"WARD":"Ward 5"},"geometry":{"type":"Point","coordinates":[-76.99111006256179,38.936589905321]}},{"type":"Feature","properties":{"OBJECTID":145,"NAME":"PNC Bank","ADDRESS":"650 PENNSYLVANIA AVENUE SE","ZIPCODE":"20003","ADDRESS_ID":280033,"Y":135280.49,"X":400265.23,"DIFFX":null,"DIFFY":null,"LATITUDE":38.88536339,"LONGITUDE":-76.996943,"WARD":"Ward 6"},"geometry":{"type":"Point","coordinates":[-76.99694528636107,38.88537084202037]}},{"type":"Feature","properties":{"OBJECTID":146,"NAME":"PNC Bank","ADDRESS":"2000 MARTIN LUTHER KING JR AVENUE SE","ZIPCODE":"20020","ADDRESS_ID":151471,"Y":133176.18,"X":400967.07,"DIFFX":null,"DIFFY":null,"LATITUDE":38.86640644,"LONGITUDE":-76.98885668,"WARD":"Ward 8"},"geometry":{"type":"Point","coordinates":[-76.98885895629596,38.866413887885884]}},{"type":"Feature","properties":{"OBJECTID":147,"NAME":"PNC Bank","ADDRESS":"4100 SOUTH CAPITOL STREET SE","ZIPCODE":"20032","ADDRESS_ID":27051,"Y":129128.97,"X":399361.01,"DIFFX":null,"DIFFY":null,"LATITUDE":38.8299477,"LONGITUDE":-77.00735917,"WARD":"Ward 8"},"geometry":{"type":"Point","coordinates":[-77.00736145463998,38.8299551382074]}},{"type":"Feature","properties":{"OBJECTID":148,"NAME":"Premier Bank","ADDRESS":"1501 K STREET NW","ZIPCODE":"20005","ADDRESS_ID":279201,"Y":137233.59,"X":396953.84,"DIFFX":null,"DIFFY":null,"LATITUDE":38.9029524,"LONGITUDE":-77.03511817,"WARD":"Ward 2"},"geometry":{"type":"Point","coordinates":[-77.03512046872042,38.9029598491292]}},{"type":"Feature","properties":{"OBJECTID":149,"NAME":"Premier Bank","ADDRESS":"1604 17TH STREET NW","ZIPCODE":"20009","ADDRESS_ID":241674,"Y":138169.92,"X":396639.9,"DIFFX":null,"DIFFY":null,"LATITUDE":38.91138604,"LONGITUDE":-77.03874207,"WARD":"Ward 2"},"geometry":{"type":"Point","coordinates":[-77.03874436183118,38.911393491302384]}},{"type":"Feature","properties":{"OBJECTID":150,"NAME":"Premier Bank","ADDRESS":"1130 CONNECTICUT AVENUE NW","ZIPCODE":"20036","ADDRESS_ID":241787,"Y":137421.29,"X":396432.54,"DIFFX":null,"DIFFY":null,"LATITUDE":38.9046413,"LONGITUDE":-77.04112904,"WARD":"Ward 2"},"geometry":{"type":"Point","coordinates":[-77.04113134066105,38.90464875567815]}},{"type":"Feature","properties":{"OBJECTID":151,"NAME":"Presidental Bank","ADDRESS":"1660 K STREET NW","ZIPCODE":"20006","ADDRESS_ID":279290,"Y":137148.86,"X":396720.23,"DIFFX":null,"DIFFY":null,"LATITUDE":38.90218828,"LONGITUDE":-77.03781098,"WARD":"Ward 2"},"geometry":{"type":"Point","coordinates":[-77.03781327727157,38.902195730469934]}},{"type":"Feature","properties":{"OBJECTID":152,"NAME":"State Bank of India (California) ","ADDRESS":"2001 PENNSYLVANIA AVENUE NW","ZIPCODE":"20006","ADDRESS_ID":243321,"Y":137091.99,"X":396067.85,"DIFFX":null,"DIFFY":null,"LATITUDE":38.9016733,"LONGITUDE":-77.04533165,"WARD":"Ward 2"},"geometry":{"type":"Point","coordinates":[-77.04533394621778,38.901680748737384]}},{"type":"Feature","properties":{"OBJECTID":153,"NAME":"SunTrust Bank ","ADDRESS":"1800 COLUMBIA ROAD NW","ZIPCODE":"20009","ADDRESS_ID":235413,"Y":139366.05,"X":396282.89,"DIFFX":null,"DIFFY":null,"LATITUDE":38.92215973,"LONGITUDE":-77.04286488,"WARD":"Ward 1"},"geometry":{"type":"Point","coordinates":[-77.0428671762697,38.922167189716184]}},{"type":"Feature","properties":{"OBJECTID":154,"NAME":"SunTrust Bank ","ADDRESS":"1250 U STREET NW","ZIPCODE":"20009","ADDRESS_ID":297746,"Y":138760.45,"X":397481.94,"DIFFX":null,"DIFFY":null,"LATITUDE":38.91670854,"LONGITUDE":-77.02903548,"WARD":"Ward 1"},"geometry":{"type":"Point","coordinates":[-77.02903777613348,38.91671600065547]}},{"type":"Feature","properties":{"OBJECTID":155,"NAME":"SunTrust Bank ","ADDRESS":"624 H STREET NW","ZIPCODE":"20001","ADDRESS_ID":242976,"Y":136854.73,"X":398153.88,"DIFFX":null,"DIFFY":null,"LATITUDE":38.89954283,"LONGITUDE":-77.02128229,"WARD":"Ward 2"},"geometry":{"type":"Point","coordinates":[-77.02128458119788,38.89955028265965]}},{"type":"Feature","properties":{"OBJECTID":156,"NAME":"SunTrust Bank ","ADDRESS":"1445 NEW YORK AVENUE NW","ZIPCODE":"20005","ADDRESS_ID":218285,"Y":136833.9,"X":397144.19,"DIFFX":null,"DIFFY":null,"LATITUDE":38.89935249,"LONGITUDE":-77.03292203,"WARD":"Ward 2"},"geometry":{"type":"Point","coordinates":[-77.03292432385963,38.89935993771017]}},{"type":"Feature","properties":{"OBJECTID":157,"NAME":"SunTrust Bank ","ADDRESS":"1100 G STREET NW","ZIPCODE":"20005","ADDRESS_ID":303213,"Y":136699.25,"X":397631.97,"DIFFX":null,"DIFFY":null,"LATITUDE":38.89814096,"LONGITUDE":-77.0272984,"WARD":"Ward 2"},"geometry":{"type":"Point","coordinates":[-77.02730068727055,38.89814841133255]}},{"type":"Feature","properties":{"OBJECTID":158,"NAME":"SunTrust Bank ","ADDRESS":"1275 K STREET NW","ZIPCODE":"20005","ADDRESS_ID":243281,"Y":137226.28,"X":397471.6,"DIFFX":null,"DIFFY":null,"LATITUDE":38.90288819,"LONGITUDE":-77.02914906,"WARD":"Ward 2"},"geometry":{"type":"Point","coordinates":[-77.02915135610438,38.902895640066646]}},{"type":"Feature","properties":{"OBJECTID":159,"NAME":"SunTrust Bank ","ADDRESS":"900 17TH STREET NW","ZIPCODE":"20006","ADDRESS_ID":279977,"Y":137084.41,"X":396545.09,"DIFFX":null,"DIFFY":null,"LATITUDE":38.90160702,"LONGITUDE":-77.03982977,"WARD":"Ward 2"},"geometry":{"type":"Point","coordinates":[-77.03983206311317,38.90161447089872]}},{"type":"Feature","properties":{"OBJECTID":160,"NAME":"SunTrust Bank ","ADDRESS":"1020 19TH STREET NW","ZIPCODE":"20036","ADDRESS_ID":242546,"Y":137258.73,"X":396200.06,"DIFFX":null,"DIFFY":null,"LATITUDE":38.90317593,"LONGITUDE":-77.04380839,"WARD":"Ward 2"},"geometry":{"type":"Point","coordinates":[-77.0438106903606,38.9031833834372]}},{"type":"Feature","properties":{"OBJECTID":161,"NAME":"SunTrust Bank ","ADDRESS":"1855 WISCONSIN AVENUE NW","ZIPCODE":"20007","ADDRESS_ID":224665,"Y":138696.71,"X":394141.03,"DIFFX":null,"DIFFY":null,"LATITUDE":38.91611843,"LONGITUDE":-77.06755861,"WARD":"Ward 2"},"geometry":{"type":"Point","coordinates":[-77.06756091263733,38.91612588552243]}},{"type":"Feature","properties":{"OBJECTID":162,"NAME":"SunTrust Bank ","ADDRESS":"2929 M STREET NW","ZIPCODE":"20007","ADDRESS_ID":272083,"Y":137507.74,"X":394886.57,"DIFFX":null,"DIFFY":null,"LATITUDE":38.90541244,"LONGITUDE":-77.05895308,"WARD":"Ward 2"},"geometry":{"type":"Point","coordinates":[-77.05895538615363,38.905419892858994]}},{"type":"Feature","properties":{"OBJECTID":163,"NAME":"SunTrust Bank ","ADDRESS":"1369 CONNECTICUT AVENUE NW","ZIPCODE":"20036","ADDRESS_ID":241264,"Y":137913.78,"X":396286.18,"DIFFX":null,"DIFFY":null,"LATITUDE":38.90907722,"LONGITUDE":-77.04281908,"WARD":"Ward 2"},"geometry":{"type":"Point","coordinates":[-77.04282138058284,38.909084670794336]}},{"type":"Feature","properties":{"OBJECTID":164,"NAME":"SunTrust Bank ","ADDRESS":"1150 CONNECTICUT AVENUE NW","ZIPCODE":"20036","ADDRESS_ID":241786,"Y":137495.99,"X":396416.78,"DIFFX":null,"DIFFY":null,"LATITUDE":38.90531416,"LONGITUDE":-77.04131113,"WARD":"Ward 2"},"geometry":{"type":"Point","coordinates":[-77.04131342660789,38.90532161540786]}},{"type":"Feature","properties":{"OBJECTID":165,"NAME":"SunTrust Bank ","ADDRESS":"2250 M STREET NW","ZIPCODE":"20037","ADDRESS_ID":303499,"Y":137472.72,"X":395691.34,"DIFFX":null,"DIFFY":null,"LATITUDE":38.90510128,"LONGITUDE":-77.04967462,"WARD":"Ward 2"},"geometry":{"type":"Point","coordinates":[-77.04967691721997,38.90510873410145]}},{"type":"Feature","properties":{"OBJECTID":166,"NAME":"SunTrust Bank ","ADDRESS":"5000 CONNECTICUT AVENUE NW","ZIPCODE":"20008","ADDRESS_ID":285038,"Y":143006.75,"X":393914.75,"DIFFX":null,"DIFFY":null,"LATITUDE":38.95494301,"LONGITUDE":-77.07020602,"WARD":"Ward 3"},"geometry":{"type":"Point","coordinates":[-77.07020832481527,38.95495047413549]}},{"type":"Feature","properties":{"OBJECTID":167,"NAME":"SunTrust Bank ","ADDRESS":"3301 NEW MEXICO AVENUE NW","ZIPCODE":"20016","ADDRESS_ID":223997,"Y":140643.14,"X":392614.49,"DIFFX":null,"DIFFY":null,"LATITUDE":38.93364098,"LONGITUDE":-77.08518177,"WARD":"Ward 3"},"geometry":{"type":"Point","coordinates":[-77.08518407888248,38.93364843736703]}},{"type":"Feature","properties":{"OBJECTID":168,"NAME":"SunTrust Bank ","ADDRESS":"3236 WISCONSIN AVENUE NW","ZIPCODE":"20016","ADDRESS_ID":284616,"Y":140601.06,"X":393695.73,"DIFFX":null,"DIFFY":null,"LATITUDE":38.93327033,"LONGITUDE":-77.07271076,"WARD":"Ward 3"},"geometry":{"type":"Point","coordinates":[-77.07271306807378,38.93327779177781]}},{"type":"Feature","properties":{"OBJECTID":169,"NAME":"SunTrust Bank ","ADDRESS":"6422 GEORGIA AVENUE NW","ZIPCODE":"20012","ADDRESS_ID":285336,"Y":144465.58,"X":397599.02,"DIFFX":null,"DIFFY":null,"LATITUDE":38.96810232,"LONGITUDE":-77.02770541,"WARD":"Ward 4"},"geometry":{"type":"Point","coordinates":[-77.02770770725498,38.968109786338]}},{"type":"Feature","properties":{"OBJECTID":170,"NAME":"SunTrust Bank ","ADDRESS":"1601 MARYLAND AVENUE NE","ZIPCODE":"20002","ADDRESS_ID":297814,"Y":136968.47,"X":401754.81,"DIFFX":null,"DIFFY":null,"LATITUDE":38.90056763,"LONGITUDE":-76.97977005,"WARD":"Ward 5"},"geometry":{"type":"Point","coordinates":[-76.97977232815262,38.90057508209077]}},{"type":"Feature","properties":{"OBJECTID":171,"NAME":"SunTrust Bank ","ADDRESS":"410 RHODE ISLAND AVENUE NE","ZIPCODE":"20002","ADDRESS_ID":288105,"Y":139152.52,"X":400000.06,"DIFFX":null,"DIFFY":null,"LATITUDE":38.92024405,"LONGITUDE":-76.99999931,"WARD":"Ward 5"},"geometry":{"type":"Point","coordinates":[-77.00000159288561,38.920251505073686]}},{"type":"Feature","properties":{"OBJECTID":172,"NAME":"SunTrust Bank ","ADDRESS":"2 MASSACHUSETTS AVENUE NW","ZIPCODE":"20001","ADDRESS_ID":237154,"Y":136631.65,"X":399143.5,"DIFFX":null,"DIFFY":null,"LATITUDE":38.89753477,"LONGITUDE":-77.00987356,"WARD":"Ward 6"},"geometry":{"type":"Point","coordinates":[-77.00987584238324,38.89754221884895]}},{"type":"Feature","properties":{"OBJECTID":173,"NAME":"SunTrust Bank ","ADDRESS":"100 M STREET SE","ZIPCODE":"20003","ADDRESS_ID":76100,"Y":134324.62,"X":399536.61,"DIFFX":null,"DIFFY":null,"LATITUDE":38.87675246,"LONGITUDE":-77.00534031,"WARD":"Ward 6"},"geometry":{"type":"Point","coordinates":[-77.00534259266857,38.87675990953742]}},{"type":"Feature","properties":{"OBJECTID":174,"NAME":"SunTrust Bank ","ADDRESS":"300 PENNSYLVANIA AVENUE SE","ZIPCODE":"20003","ADDRESS_ID":278302,"Y":135494.96,"X":399843.78,"DIFFX":null,"DIFFY":null,"LATITUDE":38.88729544,"LONGITUDE":-77.00180061,"WARD":"Ward 6"},"geometry":{"type":"Point","coordinates":[-77.00180289691502,38.887302895670686]}},{"type":"Feature","properties":{"OBJECTID":175,"NAME":"SunTrust Bank ","ADDRESS":"965 L''ENFANT PLAZA SW","ZIPCODE":"20024","ADDRESS_ID":304542,"Y":135178.37,"X":397821.09,"DIFFX":null,"DIFFY":null,"LATITUDE":38.8844408,"LONGITUDE":-77.02511342,"WARD":"Ward 6"},"geometry":{"type":"Point","coordinates":[-77.02511570764113,38.88444824487953]}},{"type":"Feature","properties":{"OBJECTID":176,"NAME":"SunTrust Bank ","ADDRESS":"2845 ALABAMA AVENUE SE","ZIPCODE":"20020","ADDRESS_ID":278282,"Y":132357.23,"X":402892.75,"DIFFX":null,"DIFFY":null,"LATITUDE":38.85902477,"LONGITUDE":-76.96667096,"WARD":"Ward 7"},"geometry":{"type":"Point","coordinates":[-76.96667323466005,38.85903221903893]}},{"type":"Feature","properties":{"OBJECTID":177,"NAME":"SunTrust Bank ","ADDRESS":"1340 GOOD HOPE ROAD SE","ZIPCODE":"20020","ADDRESS_ID":66569,"Y":133257.67,"X":401242.3,"DIFFX":null,"DIFFY":null,"LATITUDE":38.86714019,"LONGITUDE":-76.98568512,"WARD":"Ward 8"},"geometry":{"type":"Point","coordinates":[-76.98568739715452,38.86714763780036]}},{"type":"Feature","properties":{"OBJECTID":178,"NAME":"TD Bank","ADDRESS":"901 7TH STREET NW","ZIPCODE":"20001","ADDRESS_ID":279981,"Y":137023.51,"X":398127.16,"DIFFX":null,"DIFFY":null,"LATITUDE":38.9010632,"LONGITUDE":-77.02159078,"WARD":"Ward 2"},"geometry":{"type":"Point","coordinates":[-77.02159307289952,38.901070657049395]}},{"type":"Feature","properties":{"OBJECTID":179,"NAME":"TD Bank","ADDRESS":"605 14TH STREET NW","ZIPCODE":"20005","ADDRESS_ID":279848,"Y":136644.45,"X":397251.04,"DIFFX":null,"DIFFY":null,"LATITUDE":38.89764619,"LONGITUDE":-77.0316895,"WARD":"Ward 2"},"geometry":{"type":"Point","coordinates":[-77.03169178908485,38.89765364418087]}},{"type":"Feature","properties":{"OBJECTID":180,"NAME":"TD Bank","ADDRESS":"1030 15TH STREET NW","ZIPCODE":"20005","ADDRESS_ID":278796,"Y":137284.63,"X":396967,"DIFFX":null,"DIFFY":null,"LATITUDE":38.90341223,"LONGITUDE":-77.03496668,"WARD":"Ward 2"},"geometry":{"type":"Point","coordinates":[-77.03496897680286,38.90341968105406]}},{"type":"Feature","properties":{"OBJECTID":181,"NAME":"TD Bank","ADDRESS":"2000 K STREET NW","ZIPCODE":"20006","ADDRESS_ID":242502,"Y":137140.73,"X":396072.67,"DIFFX":null,"DIFFY":null,"LATITUDE":38.90211238,"LONGITUDE":-77.04527636,"WARD":"Ward 2"},"geometry":{"type":"Point","coordinates":[-77.04527865772579,38.90211983756467]}},{"type":"Feature","properties":{"OBJECTID":182,"NAME":"TD Bank","ADDRESS":"801 17TH STREET NW","ZIPCODE":"20006","ADDRESS_ID":218760,"Y":136964.81,"X":396607.06,"DIFFX":null,"DIFFY":null,"LATITUDE":38.90052986,"LONGITUDE":-77.03911476,"WARD":"Ward 2"},"geometry":{"type":"Point","coordinates":[-77.03911705390786,38.90053731272394]}},{"type":"Feature","properties":{"OBJECTID":183,"NAME":"TD Bank","ADDRESS":"1753 CONNECTICUT AVENUE NW","ZIPCODE":"20009","ADDRESS_ID":300676,"Y":138454.31,"X":396043.85,"DIFFX":null,"DIFFY":null,"LATITUDE":38.91394544,"LONGITUDE":-77.04561618,"WARD":"Ward 2"},"geometry":{"type":"Point","coordinates":[-77.04561847803737,38.91395289158192]}},{"type":"Feature","properties":{"OBJECTID":184,"NAME":"TD Bank","ADDRESS":"1200 NEW HAMPSHIRE AVENUE NW","ZIPCODE":"20036","ADDRESS_ID":242474,"Y":137550.87,"X":395867.08,"DIFFX":null,"DIFFY":null,"LATITUDE":38.90580613,"LONGITUDE":-77.04764898,"WARD":"Ward 2"},"geometry":{"type":"Point","coordinates":[-77.04765127769974,38.90581358063637]}},{"type":"Feature","properties":{"OBJECTID":185,"NAME":"TD Bank","ADDRESS":"1489 P STREET NW","ZIPCODE":"20005","ADDRESS_ID":308302,"Y":137995.09,"X":397025.41,"DIFFX":null,"DIFFY":null,"LATITUDE":38.9098125,"LONGITUDE":-77.03429637,"WARD":"Ward 2"},"geometry":{"type":"Point","coordinates":[-77.03429866026643,38.90981995225044]}},{"type":"Feature","properties":{"OBJECTID":186,"NAME":"TD Bank","ADDRESS":"1611 WISCONSIN AVENUE NW","ZIPCODE":"20007","ADDRESS_ID":272964,"Y":138121.94,"X":394371.96,"DIFFX":null,"DIFFY":null,"LATITUDE":38.91094222,"LONGITUDE":-77.06489109,"WARD":"Ward 2"},"geometry":{"type":"Point","coordinates":[-77.06489339382591,38.910949673580674]}},{"type":"Feature","properties":{"OBJECTID":187,"NAME":"TD Bank","ADDRESS":"4849 WISCONSIN AVENUE NW","ZIPCODE":"20016","ADDRESS_ID":284993,"Y":142780.92,"X":392947.84,"DIFFX":null,"DIFFY":null,"LATITUDE":38.95290144,"LONGITUDE":-77.08135901,"WARD":"Ward 3"},"geometry":{"type":"Point","coordinates":[-77.08136131865524,38.95290890626341]}},{"type":"Feature","properties":{"OBJECTID":188,"NAME":"TD Bank","ADDRESS":"905 RHODE ISLAND AVENUE NE","ZIPCODE":"20018","ADDRESS_ID":308598,"Y":139247.85,"X":400621.04,"DIFFX":null,"DIFFY":null,"LATITUDE":38.92110259,"LONGITUDE":-76.99283841,"WARD":"Ward 5"},"geometry":{"type":"Point","coordinates":[-76.99284069515913,38.92111004964491]}},{"type":"Feature","properties":{"OBJECTID":189,"NAME":"TD Bank","ADDRESS":"1275 1ST STREET NE","ZIPCODE":"20002","ADDRESS_ID":303729,"Y":137678.49,"X":399526.21,"DIFFX":null,"DIFFY":null,"LATITUDE":38.90696536,"LONGITUDE":-77.00546248,"WARD":"Ward 6"},"geometry":{"type":"Point","coordinates":[-77.0054647615017,38.90697281663005]}},{"type":"Feature","properties":{"OBJECTID":190,"NAME":"The National Capital Bank of Washington","ADDRESS":"5228 44TH STREET NW","ZIPCODE":"20015","ADDRESS_ID":267740,"Y":143347.29,"X":392508.24,"DIFFX":null,"DIFFY":null,"LATITUDE":38.95799981,"LONGITUDE":-77.08643675,"WARD":"Ward 3"},"geometry":{"type":"Point","coordinates":[-77.08643905968422,38.95800727643539]}},{"type":"Feature","properties":{"OBJECTID":191,"NAME":"The Northern Trust Company","ADDRESS":"800 CONNECTICUT AVENUE NW","ZIPCODE":"20006","ADDRESS_ID":301059,"Y":136950.64,"X":396665.25,"DIFFX":null,"DIFFY":null,"LATITUDE":38.90040243,"LONGITUDE":-77.03844386,"WARD":"Ward 2"},"geometry":{"type":"Point","coordinates":[-77.03844615443663,38.90040988698434]}},{"type":"Feature","properties":{"OBJECTID":192,"NAME":"United Bank","ADDRESS":"1001 G STREET NW","ZIPCODE":"20001","ADDRESS_ID":239369,"Y":136762.57,"X":397702.51,"DIFFX":null,"DIFFY":null,"LATITUDE":38.89871156,"LONGITUDE":-77.02648543,"WARD":"Ward 2"},"geometry":{"type":"Point","coordinates":[-77.02648772133806,38.8987190080635]}},{"type":"Feature","properties":{"OBJECTID":193,"NAME":"United Bank","ADDRESS":"1275 PENNSYLVANIA AVENUE NW","ZIPCODE":"20004","ADDRESS_ID":300418,"Y":136426.96,"X":397492.18,"DIFFX":null,"DIFFY":null,"LATITUDE":38.89568768,"LONGITUDE":-77.02890889,"WARD":"Ward 2"},"geometry":{"type":"Point","coordinates":[-77.0289111775901,38.89569513594027]}},{"type":"Feature","properties":{"OBJECTID":194,"NAME":"United Bank","ADDRESS":"1667 K STREET NW","ZIPCODE":"20006","ADDRESS_ID":279291,"Y":137238.8,"X":396688.31,"DIFFX":null,"DIFFY":null,"LATITUDE":38.90299837,"LONGITUDE":-77.03817941,"WARD":"Ward 2"},"geometry":{"type":"Point","coordinates":[-77.03818170225695,38.90300582225264]}},{"type":"Feature","properties":{"OBJECTID":195,"NAME":"United Bank","ADDRESS":"1875 I STREET NW","ZIPCODE":"20006","ADDRESS_ID":279443,"Y":137075.69,"X":396281.88,"DIFFX":null,"DIFFY":null,"LATITUDE":38.90152739,"LONGITUDE":-77.04286412,"WARD":"Ward 2"},"geometry":{"type":"Point","coordinates":[-77.04286642049793,38.90153484398554]}},{"type":"Feature","properties":{"OBJECTID":196,"NAME":"United Bank","ADDRESS":"4900 MASSACHUSETTS AVENUE NW","ZIPCODE":"20016","ADDRESS_ID":269772,"Y":141982.96,"X":391576.49,"DIFFX":null,"DIFFY":null,"LATITUDE":38.94570112,"LONGITUDE":-77.09717012,"WARD":"Ward 3"},"geometry":{"type":"Point","coordinates":[-77.09717243522013,38.945708584441206]}},{"type":"Feature","properties":{"OBJECTID":197,"NAME":"United Bank","ADDRESS":"3050 MILITARY ROAD NW","ZIPCODE":"20015","ADDRESS_ID":274717,"Y":143613.54,"X":394665.1,"DIFFX":null,"DIFFY":null,"LATITUDE":38.96041401,"LONGITUDE":-77.06155389,"WARD":"Ward 4"},"geometry":{"type":"Point","coordinates":[-77.06155619763331,38.96042147473733]}},{"type":"Feature","properties":{"OBJECTID":198,"NAME":"WashingtonFirst Bank","ADDRESS":"1025 CONNECTICUT AVENUE NW","ZIPCODE":"20036","ADDRESS_ID":241803,"Y":137273.65,"X":396587.94,"DIFFX":null,"DIFFY":null,"LATITUDE":38.90331193,"LONGITUDE":-77.03933671,"WARD":"Ward 2"},"geometry":{"type":"Point","coordinates":[-77.03933900900276,38.903319379479164]}},{"type":"Feature","properties":{"OBJECTID":199,"NAME":"WashingtonFirst Bank","ADDRESS":"1146 19TH STREET NW","ZIPCODE":"20036","ADDRESS_ID":241070,"Y":137474.63,"X":396197.31,"DIFFX":null,"DIFFY":null,"LATITUDE":38.90512082,"LONGITUDE":-77.04384129,"WARD":"Ward 2"},"geometry":{"type":"Point","coordinates":[-77.04384358979254,38.90512827485339]}},{"type":"Feature","properties":{"OBJECTID":200,"NAME":"Wells Fargo Bank","ADDRESS":"1804 14TH STREET NW","ZIPCODE":"20009","ADDRESS_ID":240081,"Y":138502.54,"X":397205.36,"DIFFX":null,"DIFFY":null,"LATITUDE":38.91438437,"LONGITUDE":-77.03222365,"WARD":"Ward 2"},"geometry":{"type":"Point","coordinates":[-77.0322259415902,38.91439182505319]}},{"type":"Feature","properties":{"OBJECTID":201,"NAME":"Wells Fargo Bank","ADDRESS":"1901 7TH STREET NW","ZIPCODE":"20001","ADDRESS_ID":306547,"Y":138652.27,"X":398115.43,"DIFFX":null,"DIFFY":null,"LATITUDE":38.91573561,"LONGITUDE":-77.02173048,"WARD":"Ward 1"},"geometry":{"type":"Point","coordinates":[-77.02173277124894,38.91574306617856]}},{"type":"Feature","properties":{"OBJECTID":202,"NAME":"Wells Fargo Bank","ADDRESS":"1804 ADAMS MILL ROAD NW","ZIPCODE":"20009","ADDRESS_ID":243236,"Y":139449.47,"X":396272.26,"DIFFX":null,"DIFFY":null,"LATITUDE":38.92291116,"LONGITUDE":-77.04298791,"WARD":"Ward 1"},"geometry":{"type":"Point","coordinates":[-77.04299021210784,38.92291861892349]}},{"type":"Feature","properties":{"OBJECTID":203,"NAME":"Wells Fargo Bank","ADDRESS":"3325 14TH STREET NW","ZIPCODE":"20010","ADDRESS_ID":300784,"Y":140331.72,"X":397187.33,"DIFFX":null,"DIFFY":null,"LATITUDE":38.93086215,"LONGITUDE":-77.03243904,"WARD":"Ward 1"},"geometry":{"type":"Point","coordinates":[-77.0324413326389,38.93086961083625]}},{"type":"Feature","properties":{"OBJECTID":204,"NAME":"Wells Fargo Bank","ADDRESS":"1301 PENNSYLVANIA AVENUE NW","ZIPCODE":"20004","ADDRESS_ID":279023,"Y":136503.48,"X":397401.6,"DIFFX":null,"DIFFY":null,"LATITUDE":38.89637674,"LONGITUDE":-77.02995334,"WARD":"Ward 2"},"geometry":{"type":"Point","coordinates":[-77.02995562790905,38.896384193013844]}},{"type":"Feature","properties":{"OBJECTID":205,"NAME":"Wells Fargo Bank","ADDRESS":"801 PENNSYLVANIA AVENUE NW","ZIPCODE":"20004","ADDRESS_ID":279946,"Y":136287.06,"X":397960.83,"DIFFX":null,"DIFFY":null,"LATITUDE":38.89442863,"LONGITUDE":-77.02350611,"WARD":"Ward 2"},"geometry":{"type":"Point","coordinates":[-77.02350839978435,38.894436077483526]}},{"type":"Feature","properties":{"OBJECTID":206,"NAME":"Wells Fargo Bank","ADDRESS":"1510 K STREET NW","ZIPCODE":"20005","ADDRESS_ID":304082,"Y":137147.17,"X":396952.2,"DIFFX":null,"DIFFY":null,"LATITUDE":38.90217389,"LONGITUDE":-77.0351367,"WARD":"Ward 2"},"geometry":{"type":"Point","coordinates":[-77.0351389922198,38.90218134136403]}},{"type":"Feature","properties":{"OBJECTID":207,"NAME":"Wells Fargo Bank","ADDRESS":"1310 G STREET NW","ZIPCODE":"20005","ADDRESS_ID":240663,"Y":136696.01,"X":397343.59,"DIFFX":null,"DIFFY":null,"LATITUDE":38.89811095,"LONGITUDE":-77.0306228,"WARD":"Ward 2"},"geometry":{"type":"Point","coordinates":[-77.03062508918626,38.89811839997022]}},{"type":"Feature","properties":{"OBJECTID":208,"NAME":"Wells Fargo Bank","ADDRESS":"1300 I STREET NW","ZIPCODE":"20005","ADDRESS_ID":240649,"Y":137015.98,"X":397367.56,"DIFFX":null,"DIFFY":null,"LATITUDE":38.90099342,"LONGITUDE":-77.0303477,"WARD":"Ward 2"},"geometry":{"type":"Point","coordinates":[-77.03034999204917,38.9010008771982]}},{"type":"Feature","properties":{"OBJECTID":209,"NAME":"Wells Fargo Bank","ADDRESS":"1447 P STREET NW","ZIPCODE":"20005","ADDRESS_ID":306675,"Y":137994.97,"X":397075.24,"DIFFX":null,"DIFFY":null,"LATITUDE":38.90981158,"LONGITUDE":-77.03372184,"WARD":"Ward 2"},"geometry":{"type":"Point","coordinates":[-77.03372413073923,38.909819038500906]}},{"type":"Feature","properties":{"OBJECTID":210,"NAME":"Wells Fargo Bank","ADDRESS":"1350 NEW YORK AVENUE NW","ZIPCODE":"20005","ADDRESS_ID":243198,"Y":136823.69,"X":397261.09,"DIFFX":null,"DIFFY":null,"LATITUDE":38.89926088,"LONGITUDE":-77.03157436,"WARD":"Ward 2"},"geometry":{"type":"Point","coordinates":[-77.03157664930113,38.89926833440205]}},{"type":"Feature","properties":{"OBJECTID":211,"NAME":"Wells Fargo Bank","ADDRESS":"1700 PENNSYLVANIA AVENUE NW","ZIPCODE":"20006","ADDRESS_ID":218408,"Y":136756.11,"X":396534.03,"DIFFX":null,"DIFFY":null,"LATITUDE":38.89864953,"LONGITUDE":-77.03995562,"WARD":"Ward 2"},"geometry":{"type":"Point","coordinates":[-77.03995791109759,38.898656983025624]}},{"type":"Feature","properties":{"OBJECTID":212,"NAME":"Wells Fargo Bank","ADDRESS":"1800 K STREET NW","ZIPCODE":"20006","ADDRESS_ID":300930,"Y":137153.71,"X":396349.28,"DIFFX":null,"DIFFY":null,"LATITUDE":38.90223051,"LONGITUDE":-77.04208752,"WARD":"Ward 2"},"geometry":{"type":"Point","coordinates":[-77.04208981823146,38.902237958478906]}},{"type":"Feature","properties":{"OBJECTID":213,"NAME":"Wells Fargo Bank","ADDRESS":"2901 M STREET NW","ZIPCODE":"20007","ADDRESS_ID":272085,"Y":137502.93,"X":394947.29,"DIFFX":null,"DIFFY":null,"LATITUDE":38.90536946,"LONGITUDE":-77.058253,"WARD":"Ward 2"},"geometry":{"type":"Point","coordinates":[-77.05825530570772,38.905376913863854]}},{"type":"Feature","properties":{"OBJECTID":214,"NAME":"Wells Fargo Bank","ADDRESS":"1934 14TH STREET NW","ZIPCODE":"20009","ADDRESS_ID":309040,"Y":138749.26,"X":397205.32,"DIFFX":null,"DIFFY":null,"LATITUDE":38.9166069,"LONGITUDE":-77.03222511,"WARD":"Ward 2"},"geometry":{"type":"Point","coordinates":[-77.03222740717335,38.91661436118612]}},{"type":"Feature","properties":{"OBJECTID":215,"NAME":"Wells Fargo Bank","ADDRESS":"1300 CONNECTICUT AVENUE NW","ZIPCODE":"20036","ADDRESS_ID":218073,"Y":137739.93,"X":396298.92,"DIFFX":null,"DIFFY":null,"LATITUDE":38.90751117,"LONGITUDE":-77.04267126,"WARD":"Ward 2"},"geometry":{"type":"Point","coordinates":[-77.04267355565243,38.90751862361824]}},{"type":"Feature","properties":{"OBJECTID":216,"NAME":"Wells Fargo Bank","ADDRESS":"1100 CONNECTICUT AVENUE NW","ZIPCODE":"20036","ADDRESS_ID":243303,"Y":137358.15,"X":396475.11,"DIFFX":null,"DIFFY":null,"LATITUDE":38.90407269,"LONGITUDE":-77.04063793,"WARD":"Ward 2"},"geometry":{"type":"Point","coordinates":[-77.04064022937455,38.90408014007464]}},{"type":"Feature","properties":{"OBJECTID":217,"NAME":"Wells Fargo Bank","ADDRESS":"2000 L STREET NW","ZIPCODE":"20036","ADDRESS_ID":243349,"Y":137284.56,"X":396028.64,"DIFFX":null,"DIFFY":null,"LATITUDE":38.90340786,"LONGITUDE":-77.04578479,"WARD":"Ward 2"},"geometry":{"type":"Point","coordinates":[-77.04578709088626,38.90341531137657]}},{"type":"Feature","properties":{"OBJECTID":218,"NAME":"Wells Fargo Bank","ADDRESS":"1850 M STREET NW","ZIPCODE":"20036","ADDRESS_ID":241300,"Y":137501.37,"X":396274.8,"DIFFX":null,"DIFFY":null,"LATITUDE":38.90536204,"LONGITUDE":-77.04294805,"WARD":"Ward 2"},"geometry":{"type":"Point","coordinates":[-77.04295035087468,38.90536949001297]}},{"type":"Feature","properties":{"OBJECTID":219,"NAME":"Wells Fargo Bank","ADDRESS":"3700 CALVERT STREET NW","ZIPCODE":"20007","ADDRESS_ID":271794,"Y":139385.8,"X":393631.39,"DIFFX":null,"DIFFY":null,"LATITUDE":38.92232243,"LONGITUDE":-77.07344155,"WARD":"Ward 3"},"geometry":{"type":"Point","coordinates":[-77.07344386131905,38.9223298871877]}},{"type":"Feature","properties":{"OBJECTID":220,"NAME":"Wells Fargo Bank","ADDRESS":"4302 CONNECTICUT AVENUE NW","ZIPCODE":"20008","ADDRESS_ID":304857,"Y":141975.69,"X":394380.66,"DIFFX":null,"DIFFY":null,"LATITUDE":38.94565805,"LONGITUDE":-77.06482233,"WARD":"Ward 3"},"geometry":{"type":"Point","coordinates":[-77.06482463678529,38.94566550819817]}},{"type":"Feature","properties":{"OBJECTID":221,"NAME":"Wells Fargo Bank","ADDRESS":"5100 WISCONSIN AVENUE NW","ZIPCODE":"20016","ADDRESS_ID":265883,"Y":143165.7,"X":392731.23,"DIFFX":null,"DIFFY":null,"LATITUDE":38.95636588,"LONGITUDE":-77.08386206,"WARD":"Ward 3"},"geometry":{"type":"Point","coordinates":[-77.08386437165154,38.95637334033398]}},{"type":"Feature","properties":{"OBJECTID":222,"NAME":"Wells Fargo Bank","ADDRESS":"5701 CONNECTICUT AVENUE NW","ZIPCODE":"20015","ADDRESS_ID":263948,"Y":144267.13,"X":393414.22,"DIFFX":null,"DIFFY":null,"LATITUDE":38.96629322,"LONGITUDE":-77.07599277,"WARD":"Ward 3"},"geometry":{"type":"Point","coordinates":[-77.07599508408492,38.966300687256485]}},{"type":"Feature","properties":{"OBJECTID":223,"NAME":"Wells Fargo Bank","ADDRESS":"4841 MASSACHUSETTS AVENUE NW","ZIPCODE":"20016","ADDRESS_ID":284990,"Y":141961.01,"X":391700.17,"DIFFX":null,"DIFFY":null,"LATITUDE":38.94550457,"LONGITUDE":-77.09574313,"WARD":"Ward 3"},"geometry":{"type":"Point","coordinates":[-77.09574544905884,38.94551202999407]}},{"type":"Feature","properties":{"OBJECTID":224,"NAME":"Wells Fargo Bank","ADDRESS":"5201 MACARTHUR BOULEVARD NW","ZIPCODE":"20016","ADDRESS_ID":307557,"Y":139918.81,"X":391043.95,"DIFFX":null,"DIFFY":null,"LATITUDE":38.92710139,"LONGITUDE":-77.10328633,"WARD":"Ward 3"},"geometry":{"type":"Point","coordinates":[-77.10328865090804,38.92710884653662]}},{"type":"Feature","properties":{"OBJECTID":225,"NAME":"Wells Fargo Bank","ADDRESS":"1200 1ST STREET NE","ZIPCODE":"20002","ADDRESS_ID":302635,"Y":137581.05,"X":399448.73,"DIFFX":null,"DIFFY":null,"LATITUDE":38.90608754,"LONGITUDE":-77.00635569,"WARD":"Ward 6"},"geometry":{"type":"Point","coordinates":[-77.00635797511066,38.90609499782536]}},{"type":"Feature","properties":{"OBJECTID":226,"NAME":"Wells Fargo Bank","ADDRESS":"125 MICHIGAN AVENUE NE","ZIPCODE":"20017","ADDRESS_ID":285983,"Y":139955.63,"X":399628.64,"DIFFX":null,"DIFFY":null,"LATITUDE":38.92747864,"LONGITUDE":-77.00428276,"WARD":"Ward 5"},"geometry":{"type":"Point","coordinates":[-77.00428504597872,38.927486099115335]}},{"type":"Feature","properties":{"OBJECTID":227,"NAME":"Wells Fargo Bank","ADDRESS":"2119 BLADENSBURG ROAD NE","ZIPCODE":"20018","ADDRESS_ID":51509,"Y":139079.64,"X":402578.48,"DIFFX":null,"DIFFY":null,"LATITUDE":38.91958374,"LONGITUDE":-76.97026662,"WARD":"Ward 5"},"geometry":{"type":"Point","coordinates":[-76.9702688975994,38.91959119652893]}},{"type":"Feature","properties":{"OBJECTID":228,"NAME":"Wells Fargo Bank","ADDRESS":"490 L STREET NW","ZIPCODE":"20001","ADDRESS_ID":304767,"Y":137292.77,"X":398408.1,"DIFFX":null,"DIFFY":null,"LATITUDE":38.90348935,"LONGITUDE":-77.01835263,"WARD":"Ward 6"},"geometry":{"type":"Point","coordinates":[-77.01835491740452,38.903496800889855]}},{"type":"Feature","properties":{"OBJECTID":229,"NAME":"Wells Fargo Bank","ADDRESS":"444 NORTH CAPITOL STREET NW","ZIPCODE":"20001","ADDRESS_ID":279785,"Y":136441.56,"X":399147.67,"DIFFX":null,"DIFFY":null,"LATITUDE":38.89582237,"LONGITUDE":-77.00982525,"WARD":"Ward 6"},"geometry":{"type":"Point","coordinates":[-77.00982753551285,38.89582982269221]}},{"type":"Feature","properties":{"OBJECTID":230,"NAME":"Wells Fargo Bank","ADDRESS":"20 M STREET SE","ZIPCODE":"20003","ADDRESS_ID":301132,"Y":134328.67,"X":399314.32,"DIFFX":null,"DIFFY":null,"LATITUDE":38.8767888,"LONGITUDE":-77.00790208,"WARD":"Ward 6"},"geometry":{"type":"Point","coordinates":[-77.00790436461021,38.87679624820936]}},{"type":"Feature","properties":{"OBJECTID":231,"NAME":"Wells Fargo Bank","ADDRESS":"215 PENNSYLVANIA AVENUE SE","ZIPCODE":"20003","ADDRESS_ID":278073,"Y":135472.08,"X":399751.89,"DIFFX":null,"DIFFY":null,"LATITUDE":38.88708931,"LONGITUDE":-77.00285974,"WARD":"Ward 6"},"geometry":{"type":"Point","coordinates":[-77.00286202597539,38.887096762750936]}},{"type":"Feature","properties":{"OBJECTID":232,"NAME":"Wells Fargo Bank","ADDRESS":"600 MARYLAND AVENUE SW","ZIPCODE":"20024","ADDRESS_ID":5831,"Y":135347.16,"X":398172.72,"DIFFX":null,"DIFFY":null,"LATITUDE":38.88596212,"LONGITUDE":-77.02106109,"WARD":"Ward 6"},"geometry":{"type":"Point","coordinates":[-77.02106338094872,38.885969571197634]}},{"type":"Feature","properties":{"OBJECTID":233,"NAME":"Wells Fargo Bank","ADDRESS":"3200 PENNSYLVANIA AVENUE SE","ZIPCODE":"20020","ADDRESS_ID":287751,"Y":133563.93,"X":403454.24,"DIFFX":null,"DIFFY":null,"LATITUDE":38.8698932,"LONGITUDE":-76.96019565,"WARD":"Ward 7"},"geometry":{"type":"Point","coordinates":[-76.96019792279188,38.869900647757675]}},{"type":"Feature","properties":{"OBJECTID":234,"NAME":"Wells Fargo Bank","ADDRESS":"1545 ALABAMA AVENUE SE","ZIPCODE":"20032","ADDRESS_ID":304503,"Y":130929.03,"X":401619.77,"DIFFX":null,"DIFFY":null,"LATITUDE":38.8461622,"LONGITUDE":-76.98134106,"WARD":"Ward 8"},"geometry":{"type":"Point","coordinates":[-76.98134333573314,38.846169639347025]}}]}