{"type":"FeatureCollection","features":[{"type":"Feature","properties":{"OBJECTID":1,"NAME":"2325 Bladensburg Road Corporation, D/B/A SYD'S Liquor Store","ADDRESS":"2325 BLADENSBURG ROAD NE","ADDRESS_ID":48573,"FILENUMBER":null,"XCOORD":402694.09,"YCOORD":139244.36,"LATITUDE":38.92106724,"LONGITUDE":-76.96893284,"WARD":"Ward 5","ZIPCODE":"20018"},"geometry":{"type":"Point","coordinates":[-76.96893511057532,38.92107470128916]}},{"type":"Feature","properties":{"OBJECTID":2,"NAME":"A One  Cash Inc., D/B/A Checks Cashed","ADDRESS":"3112 MOUNT PLEASANT STREET NW","ADDRESS_ID":236437,"FILENUMBER":3763,"XCOORD":396722.19,"YCOORD":140152.83,"LATITUDE":38.92924904,"LONGITUDE":-77.03780273,"WARD":"Ward 1","ZIPCODE":"20010"},"geometry":{"type":"Point","coordinates":[-77.03780502390036,38.92925650203879]}},{"type":"Feature","properties":{"OBJECTID":3,"NAME":"Ace Cash Express, Inc.","ADDRESS":"1245 GOOD HOPE ROAD SE","ADDRESS_ID":69877,"FILENUMBER":null,"XCOORD":401107.32,"YCOORD":133237.74,"LATITUDE":38.86696083,"LONGITUDE":-76.98724051,"WARD":"Ward 8","ZIPCODE":"20020"},"geometry":{"type":"Point","coordinates":[-76.98724278871003,38.86696828040841]}},{"type":"Feature","properties":{"OBJECTID":4,"NAME":"Ace Cash Express, Inc.","ADDRESS":"1512 BENNING ROAD NE","ADDRESS_ID":297794,"FILENUMBER":null,"XCOORD":401631.26,"YCOORD":136939.52,"LATITUDE":38.90030707,"LONGITUDE":-76.98119444,"WARD":"Ward 5","ZIPCODE":"20002"},"geometry":{"type":"Point","coordinates":[-76.98119671685407,38.90031452799305]}},{"type":"Feature","properties":{"OBJECTID":5,"NAME":"Ace Cash Express, Inc.","ADDRESS":"1786 FLORIDA AVENUE NW","ADDRESS_ID":241483,"FILENUMBER":null,"XCOORD":396404.12,"YCOORD":138758.87,"LATITUDE":38.91669056,"LONGITUDE":-77.0414637,"WARD":"Ward 2","ZIPCODE":"20009"},"geometry":{"type":"Point","coordinates":[-77.04146599826876,38.91669801791235]}},{"type":"Feature","properties":{"OBJECTID":6,"NAME":"Ace Cash Express, Inc.","ADDRESS":"2441 GOOD HOPE ROAD SE","ADDRESS_ID":287060,"FILENUMBER":null,"XCOORD":402613.69,"YCOORD":132616.71,"LATITUDE":38.86136315,"LONGITUDE":-76.96988519,"WARD":"Ward 8","ZIPCODE":"20020"},"geometry":{"type":"Point","coordinates":[-76.96988746003579,38.86137059775904]}},{"type":"Feature","properties":{"OBJECTID":7,"NAME":"Ace Cash Express, Inc.","ADDRESS":"2922 MARTIN LUTHER KING JR AVENUE SE","ADDRESS_ID":302066,"FILENUMBER":null,"XCOORD":400274.32,"YCOORD":130841.18,"LATITUDE":38.84537225,"LONGITUDE":-76.99684001,"WARD":"Ward 8","ZIPCODE":"20032"},"geometry":{"type":"Point","coordinates":[-76.9968422852784,38.84537969544461]}},{"type":"Feature","properties":{"OBJECTID":8,"NAME":"Ace Cash Express, Inc.","ADDRESS":"3663 GEORGIA AVENUE NW","ADDRESS_ID":284777,"FILENUMBER":null,"XCOORD":397914.6,"YCOORD":140925.44,"LATITUDE":38.93621259,"LONGITUDE":-77.0240531,"WARD":"Ward 1","ZIPCODE":"20010"},"geometry":{"type":"Point","coordinates":[-77.02405539720014,38.93622004864518]}},{"type":"Feature","properties":{"OBJECTID":9,"NAME":"Ace Cash Express, Inc.","ADDRESS":"3829 PENNSYLVANIA AVENUE SE","ADDRESS_ID":155828,"FILENUMBER":null,"XCOORD":404199.59,"YCOORD":133042.62,"LATITUDE":38.86519378,"LONGITUDE":-76.95160993,"WARD":"Ward 7","ZIPCODE":"20020"},"geometry":{"type":"Point","coordinates":[-76.9516121917797,38.86520123035481]}},{"type":"Feature","properties":{"OBJECTID":10,"NAME":"Ace Cash Express, Inc.","ADDRESS":"3903 BENNING ROAD NE","ADDRESS_ID":289511,"FILENUMBER":null,"XCOORD":404424.96,"YCOORD":136332.03,"LATITUDE":38.89482496,"LONGITUDE":-76.94899191,"WARD":"Ward 7","ZIPCODE":"20019"},"geometry":{"type":"Point","coordinates":[-76.94899417316901,38.89483241512964]}},{"type":"Feature","properties":{"OBJECTID":11,"NAME":"ACE Cash Express, Inc.","ADDRESS":"5429 5TH STREET NW","ADDRESS_ID":285206,"FILENUMBER":null,"XCOORD":398306.71,"YCOORD":143152.73,"LATITUDE":38.95627748,"LONGITUDE":-77.01953599,"WARD":"Ward 4","ZIPCODE":"20011"},"geometry":{"type":"Point","coordinates":[-77.01953827922456,38.95628494948765]}},{"type":"Feature","properties":{"OBJECTID":12,"NAME":"Ace Cash Express, Inc.","ADDRESS":"5429 5TH STREET NW","ADDRESS_ID":285206,"FILENUMBER":null,"XCOORD":398306.71,"YCOORD":143152.73,"LATITUDE":38.95627748,"LONGITUDE":-77.01953599,"WARD":"Ward 4","ZIPCODE":"20011"},"geometry":{"type":"Point","coordinates":[-77.01953827922456,38.95628494948765]}},{"type":"Feature","properties":{"OBJECTID":13,"NAME":"ACE Cash Express, Inc.","ADDRESS":"601 H STREET NE","ADDRESS_ID":288762,"FILENUMBER":null,"XCOORD":400153.4,"YCOORD":136907.11,"LATITUDE":38.90001661,"LONGITUDE":-76.99823157,"WARD":"Ward 6","ZIPCODE":"20002"},"geometry":{"type":"Point","coordinates":[-76.99823385780303,38.90002406661852]}},{"type":"Feature","properties":{"OBJECTID":14,"NAME":"Ace Cash Express, Inc.","ADDRESS":"6221 GEORGIA AVENUE NW","ADDRESS_ID":276381,"FILENUMBER":null,"XCOORD":397622.53,"YCOORD":144200.08,"LATITUDE":38.96571069,"LONGITUDE":-77.0274332,"WARD":"Ward 4","ZIPCODE":"20011"},"geometry":{"type":"Point","coordinates":[-77.02743549956392,38.96571816105472]}},{"type":"Feature","properties":{"OBJECTID":15,"NAME":"Ace Cash Express, Inc.","ADDRESS":"645 PENNSYLVANIA AVENUE SE","ADDRESS_ID":1659,"FILENUMBER":null,"XCOORD":400268.93,"YCOORD":135197.23,"LATITUDE":38.88461335,"LONGITUDE":-76.99690039,"WARD":"Ward 6","ZIPCODE":"20003"},"geometry":{"type":"Point","coordinates":[-76.99690267332252,38.88462080283063]}},{"type":"Feature","properties":{"OBJECTID":16,"NAME":"Ace Cash Express, Inc.","ADDRESS":"909 H STREET NE","ADDRESS_ID":289056,"FILENUMBER":null,"XCOORD":400556.78,"YCOORD":136887.9,"LATITUDE":38.8998434,"LONGITUDE":-76.99358135,"WARD":"Ward 6","ZIPCODE":"20002"},"geometry":{"type":"Point","coordinates":[-76.9935836284366,38.89985085324299]}},{"type":"Feature","properties":{"OBJECTID":17,"NAME":"Ace Cash Express, Inc.*","ADDRESS":"1515 U STREET NW","ADDRESS_ID":226212,"FILENUMBER":null,"XCOORD":396942.3,"YCOORD":138819.75,"LATITUDE":38.91724103,"LONGITUDE":-77.03525828,"WARD":"Ward 1","ZIPCODE":"20009"},"geometry":{"type":"Point","coordinates":[-77.03526057318588,38.91724848263553]}},{"type":"Feature","properties":{"OBJECTID":18,"NAME":"Bhuller's Corporation, D/B/A J.J. Mutt Wine & Spirits","ADDRESS":"643 PENNSYLVANIA AVENUE SE","ADDRESS_ID":1770,"FILENUMBER":null,"XCOORD":400259.24,"YCOORD":135202.67,"LATITUDE":38.88466236,"LONGITUDE":-76.99701207,"WARD":"Ward 6","ZIPCODE":"20003"},"geometry":{"type":"Point","coordinates":[-76.99701435540621,38.88466981134996]}},{"type":"Feature","properties":{"OBJECTID":19,"NAME":"Big D Corporation","ADDRESS":"4173 MINNESOTA AVENUE NE","ADDRESS_ID":299497,"FILENUMBER":null,"XCOORD":404806.83,"YCOORD":136912.93,"LATITUDE":38.90005591,"LONGITUDE":-76.94458589,"WARD":"Ward 7","ZIPCODE":"20019"},"geometry":{"type":"Point","coordinates":[-76.94458815652546,38.900063368131896]}},{"type":"Feature","properties":{"OBJECTID":20,"NAME":"Brentwood Liquors Inc","ADDRESS":"1319 RHODE ISLAND AVENUE NE","ADDRESS_ID":300740,"FILENUMBER":null,"XCOORD":401209.43,"YCOORD":139560.9,"LATITUDE":38.92392203,"LONGITUDE":-76.98605278,"WARD":"Ward 5","ZIPCODE":"20018"},"geometry":{"type":"Point","coordinates":[-76.986055061199,38.92392949266663]}},{"type":"Feature","properties":{"OBJECTID":21,"NAME":"Brentwood Road Beverages, LLC","ADDRESS":"1358 BRENTWOOD ROAD NE","ADDRESS_ID":149316,"FILENUMBER":6068,"XCOORD":401217.94,"YCOORD":139689.61,"LATITUDE":38.92508148,"LONGITUDE":-76.98595441,"WARD":"Ward 5","ZIPCODE":"20018"},"geometry":{"type":"Point","coordinates":[-76.98595669503716,38.92508894176049]}},{"type":"Feature","properties":{"OBJECTID":22,"NAME":"CHA Corporation, D/B/A Lobby Mart","ADDRESS":"501 3RD STREET NW","ADDRESS_ID":238368,"FILENUMBER":4276,"XCOORD":398717.88,"YCOORD":136523.46,"LATITUDE":38.89655963,"LONGITUDE":-77.01477981,"WARD":"Ward 2","ZIPCODE":"20001"},"geometry":{"type":"Point","coordinates":[-77.01478210171805,38.896567085937825]}},{"type":"Feature","properties":{"OBJECTID":23,"NAME":"Continental Wine & Liquor, LLC, D/B/A Continental Wine & Liquor","ADDRESS":"1100 VERMONT AVENUE NW","ADDRESS_ID":240250,"FILENUMBER":null,"XCOORD":397104.25,"YCOORD":137346.96,"LATITUDE":38.90397418,"LONGITUDE":-77.03338463,"WARD":"Ward 2","ZIPCODE":"20005"},"geometry":{"type":"Point","coordinates":[-77.03338691909231,38.903981634666955]}},{"type":"Feature","properties":{"OBJECTID":24,"NAME":"CSB, LLC, D/B/A Southern Express Liquors","ADDRESS":"4416 SOUTHERN AVENUE SE","ADDRESS_ID":278505,"FILENUMBER":null,"XCOORD":405657.56,"YCOORD":133945.18,"LATITUDE":38.87331624,"LONGITUDE":-76.93480294,"WARD":"Ward 7","ZIPCODE":"20019"},"geometry":{"type":"Point","coordinates":[-76.93480520154893,38.87332368760525]}},{"type":"Feature","properties":{"OBJECTID":25,"NAME":"D.J. Jackson, Inc.","ADDRESS":"2931 MARTIN LUTHER KING JR AVENUE SE","ADDRESS_ID":43001,"FILENUMBER":null,"XCOORD":400207.43,"YCOORD":130829.99,"LATITUDE":38.84527147,"LONGITUDE":-76.99761054,"WARD":"Ward 8","ZIPCODE":"20032"},"geometry":{"type":"Point","coordinates":[-76.99761281963508,38.84527890923853]}},{"type":"Feature","properties":{"OBJECTID":26,"NAME":"DK Corporation, D/B/A Joe Caplan Liquor","ADDRESS":"1913 7TH STREET NW","ADDRESS_ID":218566,"FILENUMBER":3737,"XCOORD":398116.38,"YCOORD":138680.55,"LATITUDE":38.91599037,"LONGITUDE":-77.0217196,"WARD":"Ward 1","ZIPCODE":"20001"},"geometry":{"type":"Point","coordinates":[-77.02172189464589,38.91599782390357]}},{"type":"Feature","properties":{"OBJECTID":27,"NAME":"Don Ho, Inc., D/B/A District Liquors","ADDRESS":"1211 11TH STREET NW","ADDRESS_ID":239344,"FILENUMBER":3443,"XCOORD":397685.66,"YCOORD":137597.25,"LATITUDE":38.9062306,"LONGITUDE":-77.02668249,"WARD":"Ward 2","ZIPCODE":"20001"},"geometry":{"type":"Point","coordinates":[-77.02668478083278,38.90623805835342]}},{"type":"Feature","properties":{"OBJECTID":28,"NAME":"Family Market L.L.C","ADDRESS":"400 KENNEDY STREET NW","ADDRESS_ID":248728,"FILENUMBER":null,"XCOORD":398427.35,"YCOORD":143160.02,"LATITUDE":38.95634338,"LONGITUDE":-77.01814414,"WARD":"Ward 4","ZIPCODE":"20011"},"geometry":{"type":"Point","coordinates":[-77.0181464362874,38.95635084407489]}},{"type":"Feature","properties":{"OBJECTID":29,"NAME":"Fast Cash, Inc., D/B/A Check Cash One","ADDRESS":"3433 14TH STREET NW","ADDRESS_ID":230831,"FILENUMBER":4175,"XCOORD":397185.93,"YCOORD":140539.35,"LATITUDE":38.93273254,"LONGITUDE":-77.03245604,"WARD":"Ward 1","ZIPCODE":"20010"},"geometry":{"type":"Point","coordinates":[-77.03245833058371,38.93274000113951]}},{"type":"Feature","properties":{"OBJECTID":30,"NAME":"Fast Cash, Inc., D/B/A Check Cash One","ADDRESS":"3609 14TH STREET NW","ADDRESS_ID":230185,"FILENUMBER":4257,"XCOORD":397186.77,"YCOORD":140961.58,"LATITUDE":38.93653612,"LONGITUDE":-77.03244808,"WARD":"Ward 1","ZIPCODE":"20010"},"geometry":{"type":"Point","coordinates":[-77.03245037362925,38.93654357926017]}},{"type":"Feature","properties":{"OBJECTID":31,"NAME":"Fischer Corporation (The) , D/B/A Riverside Liquors","ADDRESS":"2123 E STREET NW","ADDRESS_ID":242543,"FILENUMBER":3336,"XCOORD":395862.69,"YCOORD":136495.99,"LATITUDE":38.89630337,"LONGITUDE":-77.04769324,"WARD":"Ward 2","ZIPCODE":"20037"},"geometry":{"type":"Point","coordinates":[-77.047695536112,38.89631082399409]}},{"type":"Feature","properties":{"OBJECTID":32,"NAME":"Gabriel, Inc., D/B/A Potomac Wine & Spirits","ADDRESS":"3100 M STREET NW","ADDRESS_ID":273837,"FILENUMBER":3525,"XCOORD":394681.77,"YCOORD":137461.07,"LATITUDE":38.90499081,"LONGITUDE":-77.06131388,"WARD":"Ward 2","ZIPCODE":"20007"},"geometry":{"type":"Point","coordinates":[-77.06131617797391,38.90499825780351]}},{"type":"Feature","properties":{"OBJECTID":33,"NAME":"H & Y Chun Corporation, D/B/A Michigan Liquor Store","ADDRESS":"3934 12TH STREET NE","ADDRESS_ID":29009,"FILENUMBER":3445,"XCOORD":400821.83,"YCOORD":141136.99,"LATITUDE":38.93812038,"LONGITUDE":-76.99052072,"WARD":"Ward 5","ZIPCODE":"20017"},"geometry":{"type":"Point","coordinates":[-76.990523002589,38.93812784594993]}},{"type":"Feature","properties":{"OBJECTID":34,"NAME":"Holiday Family Liquor, Inc., D/B/A Holiday Liquors","ADDRESS":"3505 WHEELER ROAD SE","ADDRESS_ID":150722,"FILENUMBER":null,"XCOORD":400510.26,"YCOORD":130165.7,"LATITUDE":38.83928712,"LONGITUDE":-76.99412263,"WARD":"Ward 8","ZIPCODE":"20032"},"geometry":{"type":"Point","coordinates":[-76.99412490455923,38.839294563376285]}},{"type":"Feature","properties":{"OBJECTID":35,"NAME":"HR Enterprises, Inc.","ADDRESS":"4137 WHEELER ROAD SE","ADDRESS_ID":300967,"FILENUMBER":6054,"XCOORD":400865.12,"YCOORD":129513.66,"LATITUDE":38.83341297,"LONGITUDE":-76.99003603,"WARD":"Ward 8","ZIPCODE":"20032"},"geometry":{"type":"Point","coordinates":[-76.99003830699249,38.833420411611264]}},{"type":"Feature","properties":{"OBJECTID":36,"NAME":"Hundal Inc., D/B/A Petworth Liquor","ADDRESS":"3210 GEORGIA AVENUE NW","ADDRESS_ID":232966,"FILENUMBER":5465,"XCOORD":397943.23,"YCOORD":140276.65,"LATITUDE":38.93036816,"LONGITUDE":-77.02372094,"WARD":"Ward 1","ZIPCODE":"20010"},"geometry":{"type":"Point","coordinates":[-77.02372323248423,38.93037561811424]}},{"type":"Feature","properties":{"OBJECTID":37,"NAME":"JAS & JASSI INC., D/B/A BIG VALU LIQUOR","ADDRESS":"3174 BLADENSBURG ROAD NE","ADDRESS_ID":302073,"FILENUMBER":null,"XCOORD":403419.46,"YCOORD":140167.02,"LATITUDE":38.92937633,"LONGITUDE":-76.96056356,"WARD":"Ward 5","ZIPCODE":"20018"},"geometry":{"type":"Point","coordinates":[-76.9605658373557,38.92938379302927]}},{"type":"Feature","properties":{"OBJECTID":38,"NAME":"JJ Brother Inc., D/B/A Cash Friend","ADDRESS":"415 RHODE ISLAND AVENUE NE","ADDRESS_ID":26073,"FILENUMBER":null,"XCOORD":400009.51,"YCOORD":139085.69,"LATITUDE":38.91964202,"LONGITUDE":-76.99989034,"WARD":"Ward 5","ZIPCODE":"20002"},"geometry":{"type":"Point","coordinates":[-76.9998926213936,38.91964947849563]}},{"type":"Feature","properties":{"OBJECTID":39,"NAME":"JJG Benning, Inc., D/B/A Benning Liquors","ADDRESS":"3445 BENNING ROAD NE","ADDRESS_ID":287910,"FILENUMBER":4399,"XCOORD":403837.99,"YCOORD":136453.64,"LATITUDE":38.89592323,"LONGITUDE":-76.95575744,"WARD":"Ward 7","ZIPCODE":"20019"},"geometry":{"type":"Point","coordinates":[-76.95575970761581,38.89593068089681]}},{"type":"Feature","properties":{"OBJECTID":40,"NAME":"Joo Family, Inc., D/B/A JJ Liquor","ADDRESS":"1211 BRENTWOOD ROAD NE","ADDRESS_ID":285928,"FILENUMBER":6268,"XCOORD":400902.77,"YCOORD":139144.43,"LATITUDE":38.92017071,"LONGITUDE":-76.98958975,"WARD":"Ward 5","ZIPCODE":"20018"},"geometry":{"type":"Point","coordinates":[-76.98959203127922,38.92017816439613]}},{"type":"Feature","properties":{"OBJECTID":41,"NAME":"Kamvs, LLC, D/B/A Van Ness liquors","ADDRESS":"4201 CONNECTICUT AVENUE NW","ADDRESS_ID":220631,"FILENUMBER":6225,"XCOORD":394570.14,"YCOORD":141732.62,"LATITUDE":38.9434696,"LONGITUDE":-77.06263465,"WARD":"Ward 3","ZIPCODE":"20008"},"geometry":{"type":"Point","coordinates":[-77.06263695166281,38.94347705639948]}},{"type":"Feature","properties":{"OBJECTID":42,"NAME":"KYS, Inc., D/B/A Kovak's Liquor","ADDRESS":"1237 MOUNT OLIVET ROAD NE","ADDRESS_ID":285971,"FILENUMBER":null,"XCOORD":401390.94,"YCOORD":137968.6,"LATITUDE":38.9095778,"LONGITUDE":-76.98396282,"WARD":"Ward 5","ZIPCODE":"20002"},"geometry":{"type":"Point","coordinates":[-76.9839651013287,38.909585256013436]}},{"type":"Feature","properties":{"OBJECTID":43,"NAME":"Lim Enterprises, Corp., D/B/A Press Liquors","ADDRESS":"527 14TH STREET NW","ADDRESS_ID":295084,"FILENUMBER":6331,"XCOORD":397250.49,"YCOORD":136519.99,"LATITUDE":38.89652501,"LONGITUDE":-77.03169534,"WARD":"Ward 2","ZIPCODE":"20004"},"geometry":{"type":"Point","coordinates":[-77.03169763116934,38.89653246142385]}},{"type":"Feature","properties":{"OBJECTID":44,"NAME":"Lucky Time Liquors, LLC, D/B/A Shulman Liquors","ADDRESS":"1550 1ST STREET SW","ADDRESS_ID":60745,"FILENUMBER":5997,"XCOORD":398972.59,"YCOORD":133674.2,"LATITUDE":38.87089274,"LONGITUDE":-77.01183935,"WARD":"Ward 6","ZIPCODE":"20024"},"geometry":{"type":"Point","coordinates":[-77.01184163513591,38.87090018667596]}},{"type":"Feature","properties":{"OBJECTID":45,"NAME":"Mac's Liquors, Inc., D/B/A Mac's Wine & Liquors","ADDRESS":"401 RHODE ISLAND AVENUE NE","ADDRESS_ID":28170,"FILENUMBER":5119,"XCOORD":399967.98,"YCOORD":139080.12,"LATITUDE":38.91959184,"LONGITUDE":-77.00036923,"WARD":"Ward 5","ZIPCODE":"20002"},"geometry":{"type":"Point","coordinates":[-77.00037151899112,38.91959930155835]}},{"type":"Feature","properties":{"OBJECTID":46,"NAME":"Mahil Corporation, D/B/A A-1 Wine & Liquor","ADDRESS":"1420 K STREET NW","ADDRESS_ID":240271,"FILENUMBER":5742,"XCOORD":397153.92,"YCOORD":137143.57,"LATITUDE":38.90214213,"LONGITUDE":-77.03281115,"WARD":"Ward 2","ZIPCODE":"20005"},"geometry":{"type":"Point","coordinates":[-77.0328134388087,38.902149587644814]}},{"type":"Feature","properties":{"OBJECTID":47,"NAME":"Milka & Mann, Inc., D/B/A Rocket Liquor","ADDRESS":"900 KENNEDY STREET NW","ADDRESS_ID":285453,"FILENUMBER":3716,"XCOORD":397747.68,"YCOORD":143133.95,"LATITUDE":38.95610705,"LONGITUDE":-77.02598562,"WARD":"Ward 4","ZIPCODE":"20011"},"geometry":{"type":"Point","coordinates":[-77.02598791323632,38.956114518440145]}},{"type":"Feature","properties":{"OBJECTID":48,"NAME":"Mita Inc., D/B/A Check Cash Plus","ADDRESS":"4055 MINNESOTA AVENUE NE","ADDRESS_ID":309100,"FILENUMBER":null,"XCOORD":404558.16,"YCOORD":136487.59,"LATITUDE":38.89622562,"LONGITUDE":-76.94745543,"WARD":"Ward 7","ZIPCODE":"20019"},"geometry":{"type":"Point","coordinates":[-76.94745769699952,38.89623307604704]}},{"type":"Feature","properties":{"OBJECTID":49,"NAME":"Mita, Inc., D/B/A Check Cash Plus","ADDRESS":"2529 PENNSYLVANIA AVENUE SE","ADDRESS_ID":302054,"FILENUMBER":4437,"XCOORD":402605.1,"YCOORD":133878.5,"LATITUDE":38.8727299,"LONGITUDE":-76.96997938,"WARD":"Ward 7","ZIPCODE":"20020"},"geometry":{"type":"Point","coordinates":[-76.969981653343,38.872737346733864]}},{"type":"Feature","properties":{"OBJECTID":50,"NAME":"Mohabat, Inc, D/B/A Good Ole Reliable Liquors","ADDRESS":"1513 RHODE ISLAND AVENUE NE","ADDRESS_ID":62059,"FILENUMBER":null,"XCOORD":401547.65,"YCOORD":139766.98,"LATITUDE":38.92577794,"LONGITUDE":-76.98215194,"WARD":"Ward 5","ZIPCODE":"20018"},"geometry":{"type":"Point","coordinates":[-76.9821542221753,38.925785396643015]}},{"type":"Feature","properties":{"OBJECTID":51,"NAME":"NAI Saturn Eastern LLC","ADDRESS":"1100 4TH STREET SW","ADDRESS_ID":307170,"FILENUMBER":null,"XCOORD":398511.05,"YCOORD":134420.39,"LATITUDE":38.87761406,"LONGITUDE":-77.01715952,"WARD":"Ward 6","ZIPCODE":"20024"},"geometry":{"type":"Point","coordinates":[-77.01716180534368,38.8776215046911]}},{"type":"Feature","properties":{"OBJECTID":52,"NAME":"NAI Saturn Eastern LLC","ADDRESS":"1601 MARYLAND AVENUE NE","ADDRESS_ID":297814,"FILENUMBER":4731,"XCOORD":401754.81,"YCOORD":136968.47,"LATITUDE":38.90056763,"LONGITUDE":-76.97977005,"WARD":"Ward 5","ZIPCODE":"20002"},"geometry":{"type":"Point","coordinates":[-76.97977232815262,38.90057508209077]}},{"type":"Feature","properties":{"OBJECTID":53,"NAME":"NAI Saturn Eastern LLC","ADDRESS":"1701 CORCORAN STREET NW","ADDRESS_ID":241699,"FILENUMBER":4723,"XCOORD":396621.59,"YCOORD":138243.64,"LATITUDE":38.91205006,"LONGITUDE":-77.03895354,"WARD":"Ward 2","ZIPCODE":"20009"},"geometry":{"type":"Point","coordinates":[-77.03895583952456,38.91205751595522]}},{"type":"Feature","properties":{"OBJECTID":54,"NAME":"NAI Saturn Eastern LLC","ADDRESS":"1747 COLUMBIA ROAD NW","ADDRESS_ID":284083,"FILENUMBER":4729,"XCOORD":396445.44,"YCOORD":139593.32,"LATITUDE":38.92420773,"LONGITUDE":-77.04099157,"WARD":"Ward 1","ZIPCODE":"20009"},"geometry":{"type":"Point","coordinates":[-77.04099386279987,38.92421518348707]}},{"type":"Feature","properties":{"OBJECTID":55,"NAME":"NAI Saturn Eastern LLC","ADDRESS":"1855 WISCONSIN AVENUE NW","ADDRESS_ID":224665,"FILENUMBER":null,"XCOORD":394141.03,"YCOORD":138696.71,"LATITUDE":38.91611843,"LONGITUDE":-77.06755861,"WARD":"Ward 2","ZIPCODE":"20007"},"geometry":{"type":"Point","coordinates":[-77.06756091263733,38.91612588552243]}},{"type":"Feature","properties":{"OBJECTID":56,"NAME":"NAI Saturn Eastern LLC","ADDRESS":"2845 ALABAMA AVENUE SE","ADDRESS_ID":278282,"FILENUMBER":4783,"XCOORD":402892.75,"YCOORD":132357.23,"LATITUDE":38.85902477,"LONGITUDE":-76.96667096,"WARD":"Ward 7","ZIPCODE":"20020"},"geometry":{"type":"Point","coordinates":[-76.96667323466005,38.85903221903893]}},{"type":"Feature","properties":{"OBJECTID":57,"NAME":"NAI Saturn Eastern LLC","ADDRESS":"322 40TH STREET NE","ADDRESS_ID":295141,"FILENUMBER":4724,"XCOORD":404558.4,"YCOORD":136144.21,"LATITUDE":38.89313233,"LONGITUDE":-76.94745494,"WARD":"Ward 7","ZIPCODE":"20019"},"geometry":{"type":"Point","coordinates":[-76.94745720858658,38.89313978162737]}},{"type":"Feature","properties":{"OBJECTID":58,"NAME":"NAI Saturn Eastern LLC","ADDRESS":"3830 GEORGIA AVENUE NW","ADDRESS_ID":225076,"FILENUMBER":4732,"XCOORD":397845.01,"YCOORD":141173.71,"LATITUDE":38.93844891,"LONGITUDE":-77.02485654,"WARD":"Ward 4","ZIPCODE":"20011"},"geometry":{"type":"Point","coordinates":[-77.02485883166266,38.93845637077936]}},{"type":"Feature","properties":{"OBJECTID":59,"NAME":"NAI Saturn Eastern LLC","ADDRESS":"415 14TH STREET SE","ADDRESS_ID":26239,"FILENUMBER":4730,"XCOORD":401167.04,"YCOORD":135078.34,"LATITUDE":38.88354161,"LONGITUDE":-76.98654924,"WARD":"Ward 6","ZIPCODE":"20003"},"geometry":{"type":"Point","coordinates":[-76.98655151955585,38.8835490628568]}},{"type":"Feature","properties":{"OBJECTID":60,"NAME":"NAI Saturn Eastern LLC","ADDRESS":"4203 DAVENPORT STREET NW","ADDRESS_ID":301160,"FILENUMBER":4727,"XCOORD":392852.16,"YCOORD":142717.87,"LATITUDE":38.9523327,"LONGITUDE":-77.08246219,"WARD":"Ward 3","ZIPCODE":"20016"},"geometry":{"type":"Point","coordinates":[-77.08246449753962,38.95234016155867]}},{"type":"Feature","properties":{"OBJECTID":61,"NAME":"NAI Saturn Eastern LLC","ADDRESS":"4865 MACARTHUR BOULEVARD NW","ADDRESS_ID":285004,"FILENUMBER":4722,"XCOORD":391678.11,"YCOORD":138844.95,"LATITUDE":38.91743395,"LONGITUDE":-77.09595982,"WARD":"Ward 3","ZIPCODE":"20007"},"geometry":{"type":"Point","coordinates":[-77.09596213669981,38.91744140840145]}},{"type":"Feature","properties":{"OBJECTID":62,"NAME":"NAI Saturn Eastern LLC","ADDRESS":"490 L STREET NW","ADDRESS_ID":304767,"FILENUMBER":null,"XCOORD":398408.1,"YCOORD":137292.77,"LATITUDE":38.90348935,"LONGITUDE":-77.01835263,"WARD":"Ward 6","ZIPCODE":"20001"},"geometry":{"type":"Point","coordinates":[-77.01835491740452,38.903496800889855]}},{"type":"Feature","properties":{"OBJECTID":63,"NAME":"NAI Saturn Eastern LLC","ADDRESS":"5545 CONNECTICUT AVENUE NW","ADDRESS_ID":263999,"FILENUMBER":4728,"XCOORD":393508.13,"YCOORD":144078.34,"LATITUDE":38.96459326,"LONGITUDE":-77.07490737,"WARD":"Ward 3","ZIPCODE":"20015"},"geometry":{"type":"Point","coordinates":[-77.07490967685338,38.964600719775966]}},{"type":"Feature","properties":{"OBJECTID":64,"NAME":"NAI Saturn Eastern LLC","ADDRESS":"6500 PINEY BRANCH ROAD NW","ADDRESS_ID":285341,"FILENUMBER":4725,"XCOORD":397699.34,"YCOORD":144623.03,"LATITUDE":38.96952094,"LONGITUDE":-77.02654833,"WARD":"Ward 4","ZIPCODE":"20012"},"geometry":{"type":"Point","coordinates":[-77.02655062193581,38.96952840268178]}},{"type":"Feature","properties":{"OBJECTID":65,"NAME":"NARA Incorporated, D/B/A Bloomingdale Liquors","ADDRESS":"1836 1ST STREET NW","ADDRESS_ID":279430,"FILENUMBER":4642,"XCOORD":398925.53,"YCOORD":138616.09,"LATITUDE":38.91541105,"LONGITUDE":-77.01238937,"WARD":"Ward 5","ZIPCODE":"20001"},"geometry":{"type":"Point","coordinates":[-77.01239166226497,38.91541850875819]}},{"type":"Feature","properties":{"OBJECTID":66,"NAME":"Northwest Liquor, Inc., D/B/A Northwest Liquors","ADDRESS":"300 KENNEDY STREET NW","ADDRESS_ID":249474,"FILENUMBER":3428,"XCOORD":398588.06,"YCOORD":143159.7,"LATITUDE":38.95634077,"LONGITUDE":-77.01628998,"WARD":"Ward 4","ZIPCODE":"20011"},"geometry":{"type":"Point","coordinates":[-77.01629227470929,38.95634823453986]}},{"type":"Feature","properties":{"OBJECTID":67,"NAME":"Ocean View Liquors Inc., D/B/A Ocean View Liquors","ADDRESS":"4682 MARTIN LUTHER KING JR AVENUE SW","ADDRESS_ID":147083,"FILENUMBER":null,"XCOORD":399075.2,"YCOORD":128149.14,"LATITUDE":38.82112067,"LONGITUDE":-77.0106495,"WARD":"Ward 8","ZIPCODE":"20032"},"geometry":{"type":"Point","coordinates":[-77.01065177900385,38.82112811225506]}},{"type":"Feature","properties":{"OBJECTID":68,"NAME":"O'Connor's Liquors, Inc., D/B/A O'Connor's Liquors","ADDRESS":"2900 MINNESOTA AVENUE SE","ADDRESS_ID":287311,"FILENUMBER":3335,"XCOORD":402964.15,"YCOORD":134258.1,"LATITUDE":38.87614835,"LONGITUDE":-76.96584013,"WARD":"Ward 7","ZIPCODE":"20019"},"geometry":{"type":"Point","coordinates":[-76.96584239977446,38.876155798556674]}},{"type":"Feature","properties":{"OBJECTID":69,"NAME":"Parki, Inc., D/B/A Imperial Liquors","ADDRESS":"1050 17TH STREET NW","ADDRESS_ID":278801,"FILENUMBER":6126,"XCOORD":396632.21,"YCOORD":137279.33,"LATITUDE":38.90336326,"LONGITUDE":-77.03882636,"WARD":"Ward 2","ZIPCODE":"20036"},"geometry":{"type":"Point","coordinates":[-77.03882865995375,38.90337071767949]}},{"type":"Feature","properties":{"OBJECTID":70,"NAME":"Prerna, Inc. , D/B/A Barmy Wine & Liquor","ADDRESS":"1912 L STREET NW","ADDRESS_ID":302227,"FILENUMBER":3870,"XCOORD":396173.34,"YCOORD":137304,"LATITUDE":38.90358362,"LONGITUDE":-77.04411669,"WARD":"Ward 2","ZIPCODE":"20036"},"geometry":{"type":"Point","coordinates":[-77.04411898969052,38.90359107568332]}},{"type":"Feature","properties":{"OBJECTID":71,"NAME":"R.K.S.R. Inc., D/B/A Whelan  Liquors","ADDRESS":"3903 12TH STREET NE","ADDRESS_ID":289602,"FILENUMBER":5031,"XCOORD":400840.7,"YCOORD":141067.56,"LATITUDE":38.93749492,"LONGITUDE":-76.99030315,"WARD":"Ward 5","ZIPCODE":"20017"},"geometry":{"type":"Point","coordinates":[-76.9903054342404,38.93750238202496]}},{"type":"Feature","properties":{"OBJECTID":72,"NAME":"Rion Inc., D/B/A Colony Liquors","ADDRESS":"4901 GEORGIA AVENUE NW","ADDRESS_ID":251938,"FILENUMBER":null,"XCOORD":397667.23,"YCOORD":142443.1,"LATITUDE":38.94988348,"LONGITUDE":-77.02691144,"WARD":"Ward 4","ZIPCODE":"20011"},"geometry":{"type":"Point","coordinates":[-77.02691373658129,38.949890944737064]}},{"type":"Feature","properties":{"OBJECTID":73,"NAME":"S & E, Inc., D/B/A Cash King","ADDRESS":"1431 GOOD HOPE ROAD SE","ADDRESS_ID":286189,"FILENUMBER":3548,"XCOORD":401370.08,"YCOORD":133180.29,"LATITUDE":38.86644293,"LONGITUDE":-76.98421288,"WARD":"Ward 8","ZIPCODE":"20020"},"geometry":{"type":"Point","coordinates":[-76.9842151566452,38.86645037713278]}},{"type":"Feature","properties":{"OBJECTID":74,"NAME":"S.R. Brothers, Inc., D/B/A S & R Liquors","ADDRESS":"1800 I STREET NW","ADDRESS_ID":240966,"FILENUMBER":null,"XCOORD":396360.72,"YCOORD":137032.91,"LATITUDE":38.90114234,"LONGITUDE":-77.04195499,"WARD":"Ward 2","ZIPCODE":"20006"},"geometry":{"type":"Point","coordinates":[-77.04195729144512,38.90114979644425]}},{"type":"Feature","properties":{"OBJECTID":75,"NAME":"S.R.D. Incorporated, D/B/A Fair Liquors","ADDRESS":"5008 1ST STREET NW","ADDRESS_ID":243580,"FILENUMBER":null,"XCOORD":398931.21,"YCOORD":142591.98,"LATITUDE":38.95122708,"LONGITUDE":-77.01233007,"WARD":"Ward 4","ZIPCODE":"20011"},"geometry":{"type":"Point","coordinates":[-77.01233236226761,38.951234544535055]}},{"type":"Feature","properties":{"OBJECTID":76,"NAME":"Safeway Inc., D/B/A Safeway","ADDRESS":"1100 4TH STREET SW","ADDRESS_ID":307170,"FILENUMBER":null,"XCOORD":398511.05,"YCOORD":134420.39,"LATITUDE":38.87761406,"LONGITUDE":-77.01715952,"WARD":"Ward 6","ZIPCODE":"20024"},"geometry":{"type":"Point","coordinates":[-77.01716180534368,38.8776215046911]}},{"type":"Feature","properties":{"OBJECTID":77,"NAME":"Safeway Inc., D/B/A Safeway","ADDRESS":"1601 MARYLAND AVENUE NE","ADDRESS_ID":297814,"FILENUMBER":4731,"XCOORD":401754.81,"YCOORD":136968.47,"LATITUDE":38.90056763,"LONGITUDE":-76.97977005,"WARD":"Ward 5","ZIPCODE":"20002"},"geometry":{"type":"Point","coordinates":[-76.97977232815262,38.90057508209077]}},{"type":"Feature","properties":{"OBJECTID":78,"NAME":"Safeway Inc., D/B/A Safeway","ADDRESS":"1701 CORCORAN STREET NW","ADDRESS_ID":241699,"FILENUMBER":4723,"XCOORD":396621.59,"YCOORD":138243.64,"LATITUDE":38.91205006,"LONGITUDE":-77.03895354,"WARD":"Ward 2","ZIPCODE":"20009"},"geometry":{"type":"Point","coordinates":[-77.03895583952456,38.91205751595522]}},{"type":"Feature","properties":{"OBJECTID":79,"NAME":"Safeway Inc., D/B/A Safeway","ADDRESS":"1747 COLUMBIA ROAD NW","ADDRESS_ID":284083,"FILENUMBER":4729,"XCOORD":396445.44,"YCOORD":139593.32,"LATITUDE":38.92420773,"LONGITUDE":-77.04099157,"WARD":"Ward 1","ZIPCODE":"20009"},"geometry":{"type":"Point","coordinates":[-77.04099386279987,38.92421518348707]}},{"type":"Feature","properties":{"OBJECTID":80,"NAME":"Safeway Inc., D/B/A Safeway","ADDRESS":"1855 WISCONSIN AVENUE NW","ADDRESS_ID":224665,"FILENUMBER":null,"XCOORD":394141.03,"YCOORD":138696.71,"LATITUDE":38.91611843,"LONGITUDE":-77.06755861,"WARD":"Ward 2","ZIPCODE":"20007"},"geometry":{"type":"Point","coordinates":[-77.06756091263733,38.91612588552243]}},{"type":"Feature","properties":{"OBJECTID":81,"NAME":"Safeway Inc., D/B/A Safeway","ADDRESS":"2845 ALABAMA AVENUE SE","ADDRESS_ID":278282,"FILENUMBER":4783,"XCOORD":402892.75,"YCOORD":132357.23,"LATITUDE":38.85902477,"LONGITUDE":-76.96667096,"WARD":"Ward 7","ZIPCODE":"20020"},"geometry":{"type":"Point","coordinates":[-76.96667323466005,38.85903221903893]}},{"type":"Feature","properties":{"OBJECTID":82,"NAME":"Safeway Inc., D/B/A Safeway","ADDRESS":"322 40TH STREET NE","ADDRESS_ID":295141,"FILENUMBER":4724,"XCOORD":404558.4,"YCOORD":136144.21,"LATITUDE":38.89313233,"LONGITUDE":-76.94745494,"WARD":"Ward 7","ZIPCODE":"20019"},"geometry":{"type":"Point","coordinates":[-76.94745720858658,38.89313978162737]}},{"type":"Feature","properties":{"OBJECTID":83,"NAME":"Safeway Inc., D/B/A Safeway","ADDRESS":"415 14TH STREET SE","ADDRESS_ID":26239,"FILENUMBER":4730,"XCOORD":401167.04,"YCOORD":135078.34,"LATITUDE":38.88354161,"LONGITUDE":-76.98654924,"WARD":"Ward 6","ZIPCODE":"20003"},"geometry":{"type":"Point","coordinates":[-76.98655151955585,38.8835490628568]}},{"type":"Feature","properties":{"OBJECTID":84,"NAME":"Safeway Inc., D/B/A Safeway","ADDRESS":"4203 DAVENPORT STREET NW","ADDRESS_ID":301160,"FILENUMBER":4727,"XCOORD":392852.16,"YCOORD":142717.87,"LATITUDE":38.9523327,"LONGITUDE":-77.08246219,"WARD":"Ward 3","ZIPCODE":"20016"},"geometry":{"type":"Point","coordinates":[-77.08246449753962,38.95234016155867]}},{"type":"Feature","properties":{"OBJECTID":85,"NAME":"Safeway Inc., D/B/A Safeway","ADDRESS":"4865 MACARTHUR BOULEVARD NW","ADDRESS_ID":285004,"FILENUMBER":4722,"XCOORD":391678.11,"YCOORD":138844.95,"LATITUDE":38.91743395,"LONGITUDE":-77.09595982,"WARD":"Ward 3","ZIPCODE":"20007"},"geometry":{"type":"Point","coordinates":[-77.09596213669981,38.91744140840145]}},{"type":"Feature","properties":{"OBJECTID":86,"NAME":"Safeway Inc., D/B/A Safeway","ADDRESS":"490 L STREET NW","ADDRESS_ID":304767,"FILENUMBER":null,"XCOORD":398408.1,"YCOORD":137292.77,"LATITUDE":38.90348935,"LONGITUDE":-77.01835263,"WARD":"Ward 6","ZIPCODE":"20001"},"geometry":{"type":"Point","coordinates":[-77.01835491740452,38.903496800889855]}},{"type":"Feature","properties":{"OBJECTID":87,"NAME":"Safeway Inc., D/B/A Safeway","ADDRESS":"5545 CONNECTICUT AVENUE NW","ADDRESS_ID":263999,"FILENUMBER":4728,"XCOORD":393508.13,"YCOORD":144078.34,"LATITUDE":38.96459326,"LONGITUDE":-77.07490737,"WARD":"Ward 3","ZIPCODE":"20015"},"geometry":{"type":"Point","coordinates":[-77.07490967685338,38.964600719775966]}},{"type":"Feature","properties":{"OBJECTID":88,"NAME":"Safeway Inc., D/B/A Safeway","ADDRESS":"6500 PINEY BRANCH ROAD NW","ADDRESS_ID":285341,"FILENUMBER":4725,"XCOORD":397699.34,"YCOORD":144623.03,"LATITUDE":38.96952094,"LONGITUDE":-77.02654833,"WARD":"Ward 4","ZIPCODE":"20012"},"geometry":{"type":"Point","coordinates":[-77.02655062193581,38.96952840268178]}},{"type":"Feature","properties":{"OBJECTID":89,"NAME":"Safeway, Inc.","ADDRESS":"3830 GEORGIA AVENUE NW","ADDRESS_ID":225076,"FILENUMBER":4732,"XCOORD":397845.01,"YCOORD":141173.71,"LATITUDE":38.93844891,"LONGITUDE":-77.02485654,"WARD":"Ward 4","ZIPCODE":"20011"},"geometry":{"type":"Point","coordinates":[-77.02485883166266,38.93845637077936]}},{"type":"Feature","properties":{"OBJECTID":90,"NAME":"Sahel Corporation, D/B/A Big \"D\" Liquors","ADDRESS":"4169 MINNESOTA AVENUE NE","ADDRESS_ID":288122,"FILENUMBER":3479,"XCOORD":404806.04,"YCOORD":136908.25,"LATITUDE":38.90001376,"LONGITUDE":-76.94459503,"WARD":"Ward 7","ZIPCODE":"20019"},"geometry":{"type":"Point","coordinates":[-76.94459729654812,38.900021213333055]}},{"type":"Feature","properties":{"OBJECTID":91,"NAME":"Sanghera Corporation","ADDRESS":"2757 MARTIN LUTHER KING JR AVENUE SE","ADDRESS_ID":44813,"FILENUMBER":null,"XCOORD":400298.57,"YCOORD":130995.62,"LATITUDE":38.84676351,"LONGITUDE":-76.99656059,"WARD":"Ward 8","ZIPCODE":"20032"},"geometry":{"type":"Point","coordinates":[-76.99656287349322,38.846770951541956]}},{"type":"Feature","properties":{"OBJECTID":92,"NAME":"Sanghera Corporation, D/B/A King Avenue Liquors","ADDRESS":"2755 MARTIN LUTHER KING JR AVENUE SE","ADDRESS_ID":302060,"FILENUMBER":3511,"XCOORD":400300.43,"YCOORD":130994.42,"LATITUDE":38.8467527,"LONGITUDE":-76.99653917,"WARD":"Ward 8","ZIPCODE":"20032"},"geometry":{"type":"Point","coordinates":[-76.99654144756173,38.84676014077874]}},{"type":"Feature","properties":{"OBJECTID":93,"NAME":"SD Liquors, Inc., D/B/A Al's Liquors","ADDRESS":"4009 SOUTH CAPITOL STREET SW","ADDRESS_ID":295371,"FILENUMBER":4661,"XCOORD":399306.12,"YCOORD":129251.94,"LATITUDE":38.83105543,"LONGITUDE":-77.00799146,"WARD":"Ward 8","ZIPCODE":"20032"},"geometry":{"type":"Point","coordinates":[-77.00799374058754,38.83106286764326]}},{"type":"Feature","properties":{"OBJECTID":94,"NAME":"SE & BIN INC","ADDRESS":"5008 1ST STREET NW","ADDRESS_ID":243580,"FILENUMBER":null,"XCOORD":398931.21,"YCOORD":142591.98,"LATITUDE":38.95122708,"LONGITUDE":-77.01233007,"WARD":"Ward 4","ZIPCODE":"20011"},"geometry":{"type":"Point","coordinates":[-77.01233236226761,38.951234544535055]}},{"type":"Feature","properties":{"OBJECTID":95,"NAME":"Shree Corp , D/B/A Metro Wine and Spirit","ADDRESS":"1726 COLUMBIA ROAD NW","ADDRESS_ID":284080,"FILENUMBER":4434,"XCOORD":396552.65,"YCOORD":139611.34,"LATITUDE":38.92437048,"LONGITUDE":-77.0397553,"WARD":"Ward 1","ZIPCODE":"20009"},"geometry":{"type":"Point","coordinates":[-77.03975759592821,38.924377940577436]}},{"type":"Feature","properties":{"OBJECTID":96,"NAME":"Silverman's Mun Liquors, Inc., D/B/A Silverman Liquors","ADDRESS":"2033 BENNING ROAD NE","ADDRESS_ID":52300,"FILENUMBER":3724,"XCOORD":402222.87,"YCOORD":136717.05,"LATITUDE":38.89830169,"LONGITUDE":-76.97437494,"WARD":"Ward 7","ZIPCODE":"20002"},"geometry":{"type":"Point","coordinates":[-76.97437721129705,38.89830914121039]}},{"type":"Feature","properties":{"OBJECTID":97,"NAME":"SKR Funding Inc., D/B/A The Gold Spot","ADDRESS":"5429 GEORGIA AVENUE NW","ADDRESS_ID":285207,"FILENUMBER":null,"XCOORD":397598.8,"YCOORD":143121.31,"LATITUDE":38.9559928,"LONGITUDE":-77.02770324,"WARD":"Ward 4","ZIPCODE":"20011"},"geometry":{"type":"Point","coordinates":[-77.0277055377817,38.956000259523854]}},{"type":"Feature","properties":{"OBJECTID":98,"NAME":"SKR Funding, Inc., D/B/A The Gold Spot","ADDRESS":"3420 GEORGIA AVENUE NW","ADDRESS_ID":218175,"FILENUMBER":null,"XCOORD":397917.42,"YCOORD":140520.11,"LATITUDE":38.93256126,"LONGITUDE":-77.02401935,"WARD":"Ward 1","ZIPCODE":"20010"},"geometry":{"type":"Point","coordinates":[-77.02402164086554,38.932568719936064]}},{"type":"Feature","properties":{"OBJECTID":99,"NAME":"SKR Funding, Inc., D/B/A The Gold Spot","ADDRESS":"712 H STREET NE","ADDRESS_ID":77044,"FILENUMBER":5814,"XCOORD":400386.95,"YCOORD":136953.85,"LATITUDE":38.90043759,"LONGITUDE":-76.99553914,"WARD":"Ward 6","ZIPCODE":"20002"},"geometry":{"type":"Point","coordinates":[-76.9955414206112,38.90044504567868]}},{"type":"Feature","properties":{"OBJECTID":100,"NAME":"Soo & Chan, Inc,","ADDRESS":"6205 GEORGIA AVENUE NW","ADDRESS_ID":302323,"FILENUMBER":3489,"XCOORD":397638.16,"YCOORD":144152.68,"LATITUDE":38.96528375,"LONGITUDE":-77.02725269,"WARD":"Ward 4","ZIPCODE":"20011"},"geometry":{"type":"Point","coordinates":[-77.02725498442231,38.965291212264006]}},{"type":"Feature","properties":{"OBJECTID":101,"NAME":"Starlight, Inc., D/B/A Kogod Liquor","ADDRESS":"441 NEW JERSEY AVENUE NW","ADDRESS_ID":237161,"FILENUMBER":3592,"XCOORD":399050.2,"YCOORD":136454.38,"LATITUDE":38.89593776,"LONGITUDE":-77.01094885,"WARD":"Ward 6","ZIPCODE":"20001"},"geometry":{"type":"Point","coordinates":[-77.01095114073543,38.89594521000692]}},{"type":"Feature","properties":{"OBJECTID":102,"NAME":"STC, Inc., D/B/A Washington Wine & Liquors","ADDRESS":"1200 E STREET NW","ADDRESS_ID":301972,"FILENUMBER":3495,"XCOORD":397538.02,"YCOORD":136461.12,"LATITUDE":38.89599554,"LONGITUDE":-77.02838059,"WARD":"Ward 2","ZIPCODE":"20004"},"geometry":{"type":"Point","coordinates":[-77.02838287947833,38.89600299133485]}},{"type":"Feature","properties":{"OBJECTID":103,"NAME":"Suburan Liquors, Inc., D/B/A Suburban Liquors","ADDRESS":"4347 HUNT PLACE NE","ADDRESS_ID":22805,"FILENUMBER":3501,"XCOORD":405257.61,"YCOORD":136941.92,"LATITUDE":38.90031448,"LONGITUDE":-76.93938899,"WARD":"Ward 7","ZIPCODE":"20019"},"geometry":{"type":"Point","coordinates":[-76.93939125135478,38.9003219400545]}},{"type":"Feature","properties":{"OBJECTID":104,"NAME":"Sunami LLC, D/B/A Sportsman Wine & Liquors","ADDRESS":"3249 MOUNT PLEASANT STREET NW","ADDRESS_ID":284620,"FILENUMBER":5541,"XCOORD":396658.36,"YCOORD":140480.38,"LATITUDE":38.93219947,"LONGITUDE":-77.03854047,"WARD":"Ward 1","ZIPCODE":"20010"},"geometry":{"type":"Point","coordinates":[-77.0385427654729,38.93220693306901]}},{"type":"Feature","properties":{"OBJECTID":105,"NAME":"Sylvia and David Industries, Inc., D/B/A Sosnicks Liquors","ADDRESS":"2318 4TH STREET NE","ADDRESS_ID":48629,"FILENUMBER":null,"XCOORD":399929.91,"YCOORD":139221.35,"LATITUDE":38.92086409,"LONGITUDE":-77.00080825,"WARD":"Ward 5","ZIPCODE":"20002"},"geometry":{"type":"Point","coordinates":[-77.00081053249377,38.92087154536405]}},{"type":"Feature","properties":{"OBJECTID":106,"NAME":"Three Way Liquors, Inc., D/B/A Three Way Liquors","ADDRESS":"4823 GEORGIA AVENUE NW","ADDRESS_ID":252098,"FILENUMBER":null,"XCOORD":397675.24,"YCOORD":142371.7,"LATITUDE":38.94924031,"LONGITUDE":-77.02681879,"WARD":"Ward 4","ZIPCODE":"20011"},"geometry":{"type":"Point","coordinates":[-77.02682108909055,38.949247775029406]}},{"type":"Feature","properties":{"OBJECTID":107,"NAME":"TM  Liquors, Inc., D/B/A Big Ben Liquors","ADDRESS":"1300 NORTH CAPITOL STREET NW","ADDRESS_ID":237015,"FILENUMBER":5047,"XCOORD":399192.02,"YCOORD":137735.83,"LATITUDE":38.90748166,"LONGITUDE":-77.00931553,"WARD":"Ward 5","ZIPCODE":"20002"},"geometry":{"type":"Point","coordinates":[-77.00931781314046,38.90748911151745]}},{"type":"Feature","properties":{"OBJECTID":108,"NAME":"Tri-Dev, Inc., D/B/A Cleveland Park Liquors","ADDRESS":"3423 CONNECTICUT AVENUE NW","ADDRESS_ID":219252,"FILENUMBER":3580,"XCOORD":394993.59,"YCOORD":140803.41,"LATITUDE":38.93510152,"LONGITUDE":-77.05774328,"WARD":"Ward 3","ZIPCODE":"20008"},"geometry":{"type":"Point","coordinates":[-77.0577455808761,38.935108975860416]}},{"type":"Feature","properties":{"OBJECTID":109,"NAME":"Un Yong, Inc., D/B/A 800 Corner Store","ADDRESS":"800 NORTH CAPITOL STREET NW","ADDRESS_ID":237165,"FILENUMBER":4183,"XCOORD":399156.14,"YCOORD":136961.34,"LATITUDE":38.90050474,"LONGITUDE":-77.00972825,"WARD":"Ward 6","ZIPCODE":"20002"},"geometry":{"type":"Point","coordinates":[-77.00973053621344,38.900512197883735]}},{"type":"Feature","properties":{"OBJECTID":110,"NAME":"UNCHA, Inc, D/B/A Weltman's Liquors","ADDRESS":"3938 MINNESOTA AVENUE NE","ADDRESS_ID":300614,"FILENUMBER":5933,"XCOORD":404318.72,"YCOORD":136264.08,"LATITUDE":38.89421337,"LONGITUDE":-76.950217,"WARD":"Ward 7","ZIPCODE":"20019"},"geometry":{"type":"Point","coordinates":[-76.95021926684184,38.894220824834235]}},{"type":"Feature","properties":{"OBJECTID":111,"NAME":"United Capital of DC, Inc., D/B/A EZ Cash Depot","ADDRESS":"1756 COLUMBIA ROAD NW","ADDRESS_ID":226066,"FILENUMBER":null,"XCOORD":396462.95,"YCOORD":139530.05,"LATITUDE":38.92363784,"LONGITUDE":-77.04078931,"WARD":"Ward 1","ZIPCODE":"20009"},"geometry":{"type":"Point","coordinates":[-77.04079160952705,38.92364529774247]}},{"type":"Feature","properties":{"OBJECTID":112,"NAME":"Unlimited Technologies and Solutions Corporation","ADDRESS":"1801 COLUMBIA ROAD NW","ADDRESS_ID":235335,"FILENUMBER":null,"XCOORD":396274.07,"YCOORD":139429.24,"LATITUDE":38.92272893,"LONGITUDE":-77.04296693,"WARD":"Ward 1","ZIPCODE":"20009"},"geometry":{"type":"Point","coordinates":[-77.04296922955645,38.92273638825152]}},{"type":"Feature","properties":{"OBJECTID":113,"NAME":"Venus Indo Service, Inc, D/B/A Pan Mar Liquor","ADDRESS":"1926 I STREET NW","ADDRESS_ID":241080,"FILENUMBER":null,"XCOORD":396128,"YCOORD":137034.4,"LATITUDE":38.90115477,"LONGITUDE":-77.04463789,"WARD":"Ward 2","ZIPCODE":"20006"},"geometry":{"type":"Point","coordinates":[-77.04464018434813,38.90116222450118]}},{"type":"Feature","properties":{"OBJECTID":114,"NAME":"Vinnakota Chon, Inc., D/B/A LAX WINE & SPIRITS","ADDRESS":"3035 NAYLOR ROAD SE","ADDRESS_ID":278315,"FILENUMBER":null,"XCOORD":403047.65,"YCOORD":131711.62,"LATITUDE":38.85320832,"LONGITUDE":-76.96488913,"WARD":"Ward 8","ZIPCODE":"20020"},"geometry":{"type":"Point","coordinates":[-76.964891402892,38.853215764955]}},{"type":"Feature","properties":{"OBJECTID":115,"NAME":"Walgreen Co.","ADDRESS":"1217 22ND STREET NW","ADDRESS_ID":294975,"FILENUMBER":null,"XCOORD":395793.1,"YCOORD":137518.17,"LATITUDE":38.9055112,"LONGITUDE":-77.0485017,"WARD":"Ward 2","ZIPCODE":"20037"},"geometry":{"type":"Point","coordinates":[-77.04850400264898,38.90551865659749]}},{"type":"Feature","properties":{"OBJECTID":116,"NAME":"Walgreen Co.","ADDRESS":"3524 CONNECTICUT AVENUE NW","ADDRESS_ID":220938,"FILENUMBER":null,"XCOORD":394849.96,"YCOORD":140952.17,"LATITUDE":38.93644076,"LONGITUDE":-77.059401,"WARD":"Ward 3","ZIPCODE":"20008"},"geometry":{"type":"Point","coordinates":[-77.05940330706979,38.936448220188645]}},{"type":"Feature","properties":{"OBJECTID":117,"NAME":"Walgreen Co.","ADDRESS":"4225 CONNECTICUT AVENUE NW","ADDRESS_ID":221312,"FILENUMBER":null,"XCOORD":394543.86,"YCOORD":141795.78,"LATITUDE":38.9440384,"LONGITUDE":-77.06293829,"WARD":"Ward 3","ZIPCODE":"20008"},"geometry":{"type":"Point","coordinates":[-77.0629405996612,38.94404585684045]}},{"type":"Feature","properties":{"OBJECTID":118,"NAME":"Walgreen Co.","ADDRESS":"801 17TH STREET NW","ADDRESS_ID":218760,"FILENUMBER":null,"XCOORD":396607.06,"YCOORD":136964.81,"LATITUDE":38.90052986,"LONGITUDE":-77.03911476,"WARD":"Ward 2","ZIPCODE":"20006"},"geometry":{"type":"Point","coordinates":[-77.03911705390786,38.90053731272394]}},{"type":"Feature","properties":{"OBJECTID":119,"NAME":"Wal-Mart Stores east LP","ADDRESS":"99 H STREET NW","ADDRESS_ID":310062,"FILENUMBER":null,"XCOORD":398960.4,"YCOORD":136949.39,"LATITUDE":38.90039655,"LONGITUDE":-77.01198478,"WARD":"Ward 6","ZIPCODE":"20001"},"geometry":{"type":"Point","coordinates":[-77.01198706322641,38.90040433820316]}},{"type":"Feature","properties":{"OBJECTID":120,"NAME":"Wal-Mart Stores east LP","ADDRESS":"5929 GEORGIA AVENUE NW","ADDRESS_ID":254296,"FILENUMBER":null,"XCOORD":397635.44,"YCOORD":143796.02,"LATITUDE":38.96207086,"LONGITUDE":-77.02728284,"WARD":"Ward 4","ZIPCODE":"20011"},"geometry":{"type":"Point","coordinates":[-77.0272851396928,38.962078321938996]}},{"type":"Feature","properties":{"OBJECTID":121,"NAME":"Wal-Mart Stores East, LP","ADDRESS":"99 H STREET NW","ADDRESS_ID":310062,"FILENUMBER":null,"XCOORD":398960.4,"YCOORD":136949.39,"LATITUDE":38.90039655,"LONGITUDE":-77.01198478,"WARD":"Ward 6","ZIPCODE":"20001"},"geometry":{"type":"Point","coordinates":[-77.01198706322641,38.90040433820316]}},{"type":"Feature","properties":{"OBJECTID":122,"NAME":"Wal-Mart Stores East, LP D/B/A #5968","ADDRESS":"5929 GEORGIA AVENUE NW","ADDRESS_ID":254296,"FILENUMBER":null,"XCOORD":397635.44,"YCOORD":143796.02,"LATITUDE":38.96207086,"LONGITUDE":-77.02728284,"WARD":"Ward 4","ZIPCODE":"20011"},"geometry":{"type":"Point","coordinates":[-77.0272851396928,38.962078321938996]}},{"type":"Feature","properties":{"OBJECTID":123,"NAME":"WJ Globe, Inc., D/B/A Young's Globe Liquors","ADDRESS":"4520 BENNING ROAD SE","ADDRESS_ID":278510,"FILENUMBER":4452,"XCOORD":405493.83,"YCOORD":135705.68,"LATITUDE":38.88917654,"LONGITUDE":-76.93667567,"WARD":"Ward 7","ZIPCODE":"20019"},"geometry":{"type":"Point","coordinates":[-76.93667793477717,38.88918399250808]}},{"type":"Feature","properties":{"OBJECTID":124,"NAME":"Y & D & S Inc., D/B/A Sammy's Liquor","ADDRESS":"2725 BLADENSBURG ROAD NE","ADDRESS_ID":45109,"FILENUMBER":6035,"XCOORD":403016.84,"YCOORD":139664.21,"LATITUDE":38.92484834,"LONGITUDE":-76.96520917,"WARD":"Ward 5","ZIPCODE":"20018"},"geometry":{"type":"Point","coordinates":[-76.96521144137405,38.92485579663892]}},{"type":"Feature","properties":{"OBJECTID":125,"NAME":"Yi keng Ung Liquors, LLC, D/B/A Rose's Liquors","ADDRESS":"830 BLADENSBURG ROAD NE","ADDRESS_ID":81066,"FILENUMBER":5044,"XCOORD":401489.26,"YCOORD":137081.15,"LATITUDE":38.90158318,"LONGITUDE":-76.98283114,"WARD":"Ward 5","ZIPCODE":"20002"},"geometry":{"type":"Point","coordinates":[-76.98283342076047,38.90159063380493]}}]}